{
   "type": "FeatureCollection",
   "features": [
  {
    "type": "Feature",
    "geometry": {
       "type": "Point",
       "coordinates":  [ 121.5214846,25.104979 ]
    },
    "properties": {
    "city":"台北市",
    "district":"士林區",
    "type":"心理治療所 ",
    "hosp_name":"芯語心理治療所",
    "hosp_addr":"臺北市士林區德行西路93巷2弄9號",
    "online_available":"True",
    "mh_support_15_45":"False"
    }
  },
  {
    "type": "Feature",
    "geometry": {
       "type": "Point",
       "coordinates":  [ 121.5215653,25.1045411 ]
    },
    "properties": {
    "city":"台北市",
    "district":"士林區",
    "type":"心理諮商所 ",
    "hosp_name":"思塾心理諮商所",
    "hosp_addr":"臺北市士林區德行西路87號2F",
    "online_available":"True",
    "mh_support_15_45":"False"
    }
  },
  {
    "type": "Feature",
    "geometry": {
       "type": "Point",
       "coordinates":  [ 121.5231814,25.1027594 ]
    },
    "properties": {
    "city":"台北市",
    "district":"士林區",
    "type":"心理治療所 ",
    "hosp_name":"用心說心理治療所",
    "hosp_addr":"臺北市士林區福國路56巷17號1樓",
    "online_available":"True",
    "mh_support_15_45":"True"
    }
  },
  {
    "type": "Feature",
    "geometry": {
       "type": "Point",
       "coordinates":  [ 121.5278788,25.0941815 ]
    },
    "properties": {
    "city":"台北市",
    "district":"士林區",
    "type":"心理治療所 ",
    "hosp_name":"展立心理治療所",
    "hosp_addr":"臺北市士林區中山北路5段527號3樓",
    "online_available":"True",
    "mh_support_15_45":"False"
    }
  },
  {
    "type": "Feature",
    "geometry": {
       "type": "Point",
       "coordinates":  [ 121.5267498,25.093995 ]
    },
    "properties": {
    "city":"台北市",
    "district":"士林區",
    "type":"心理諮商所 ",
    "hosp_name":"潛意心理諮商所",
    "hosp_addr":"臺北市士林區中正路213巷44號2樓",
    "online_available":"False",
    "mh_support_15_45":"True"
    }
  },
  {
    "type": "Feature",
    "geometry": {
       "type": "Point",
       "coordinates":  [ 121.5310648,25.1229867 ]
    },
    "properties": {
    "city":"台北市",
    "district":"士林區",
    "type":"心理諮商所 ",
    "hosp_name":"我的心理諮商所",
    "hosp_addr":"臺北市士林區中山北路7段141巷5號4樓",
    "online_available":"True",
    "mh_support_15_45":"False"
    }
  },
  {
    "type": "Feature",
    "geometry": {
       "type": "Point",
       "coordinates":  [ 121.5320807,25.1074347 ]
    },
    "properties": {
    "city":"台北市",
    "district":"士林區",
    "type":"心理治療所 ",
    "hosp_name":"沐昕天母心理治療所",
    "hosp_addr":"臺北市士林區德行東路190巷31弄6號",
    "online_available":"True",
    "mh_support_15_45":"False"
    }
  },
  {
    "type": "Feature",
    "geometry": {
       "type": "Point",
       "coordinates":  [ 121.5253746,25.0953577 ]
    },
    "properties": {
    "city":"台北市",
    "district":"士林區",
    "type":"心理治療所",
    "hosp_name":"翎馨心理治療所",
    "hosp_addr":"臺北市士林區中正路236巷32號1、2樓",
    "online_available":"False",
    "mh_support_15_45":"False"
    }
  },
  {
    "type": "Feature",
    "geometry": {
       "type": "Point",
       "coordinates":  [ 121.5185692,25.0558893 ]
    },
    "properties": {
    "city":"台北市",
    "district":"大同區",
    "type":"心理治療所 ",
    "hosp_name":"宇聯心理治療所",
    "hosp_addr":"臺北市大同區承德路2段75巷5號1樓",
    "online_available":"True",
    "mh_support_15_45":"False"
    }
  },
  {
    "type": "Feature",
    "geometry": {
       "type": "Point",
       "coordinates":  [ 121.5198509,25.0529272 ]
    },
    "properties": {
    "city":"台北市",
    "district":"大同區",
    "type":"心理諮商所 ",
    "hosp_name":"人生設計心理諮商所",
    "hosp_addr":"臺北市大同區南京西路41號8樓之2",
    "online_available":"True",
    "mh_support_15_45":"True"
    }
  },
  {
    "type": "Feature",
    "geometry": {
       "type": "Point",
       "coordinates":  [ 121.518006,25.0720665 ]
    },
    "properties": {
    "city":"台北市",
    "district":"大同區",
    "type":"心理諮商所 ",
    "hosp_name":"療寓心理諮商所",
    "hosp_addr":"臺北市大同區庫倫街37號3樓",
    "online_available":"False",
    "mh_support_15_45":"False"
    }
  },
  {
    "type": "Feature",
    "geometry": {
       "type": "Point",
       "coordinates":  [ 121.5168115,25.0637672 ]
    },
    "properties": {
    "city":"台北市",
    "district":"大同區",
    "type":"心理治療所",
    "hosp_name":"北極星心理治療所",
    "hosp_addr":"臺北市大同區承德路3段8巷21號1樓",
    "online_available":"False",
    "mh_support_15_45":"False"
    }
  },
  {
    "type": "Feature",
    "geometry": {
       "type": "Point",
       "coordinates":  [ 121.5243107,25.0251972 ]
    },
    "properties": {
    "city":"台北市",
    "district":"大安區",
    "type":"心理諮商所 ",
    "hosp_name":"璞成心遇空間心理諮商所",
    "hosp_addr":"臺北市大安區羅斯福路2段93號24樓之1",
    "online_available":"False",
    "mh_support_15_45":"False"
    }
  },
  {
    "type": "Feature",
    "geometry": {
       "type": "Point",
       "coordinates":  [ 121.5558353,25.0336053 ]
    },
    "properties": {
    "city":"台北市",
    "district":"大安區",
    "type":"心理諮商所 ",
    "hosp_name":"格瑞思心理諮商所",
    "hosp_addr":"臺北市大安區信義路四段265巷21弄26號",
    "online_available":"True",
    "mh_support_15_45":"True"
    }
  },
  {
    "type": "Feature",
    "geometry": {
       "type": "Point",
       "coordinates":  [ 121.5340736,25.0407516 ]
    },
    "properties": {
    "city":"台北市",
    "district":"大安區",
    "type":"心理諮商所 ",
    "hosp_name":"拉第石心理諮商所",
    "hosp_addr":"臺北市大安區新生南路一段103巷9之1號1樓、9號6樓",
    "online_available":"True",
    "mh_support_15_45":"False"
    }
  },
  {
    "type": "Feature",
    "geometry": {
       "type": "Point",
       "coordinates":  [ 121.5314171,25.0211179 ]
    },
    "properties": {
    "city":"台北市",
    "district":"大安區",
    "type":"心理治療所 ",
    "hosp_name":"心靈之美心理治療所",
    "hosp_addr":"臺北市大安區辛亥路一段84號2樓",
    "online_available":"False",
    "mh_support_15_45":"False"
    }
  },
  {
    "type": "Feature",
    "geometry": {
       "type": "Point",
       "coordinates":  [ 121.5355866,25.0417076 ]
    },
    "properties": {
    "city":"台北市",
    "district":"大安區",
    "type":"心理諮商所 ",
    "hosp_name":"中崙諮商中心心理諮商所",
    "hosp_addr":"臺北市大安區忠孝東路3段54號4樓之1",
    "online_available":"True",
    "mh_support_15_45":"False"
    }
  },
  {
    "type": "Feature",
    "geometry": {
       "type": "Point",
       "coordinates":  [ 121.5568471,25.038304 ]
    },
    "properties": {
    "city":"台北市",
    "district":"大安區",
    "type":"心理諮商所 ",
    "hosp_name":"聯合心理諮商所",
    "hosp_addr":"臺北市大安區光復南路346巷23號4樓",
    "online_available":"False",
    "mh_support_15_45":"False"
    }
  },
  {
    "type": "Feature",
    "geometry": {
       "type": "Point",
       "coordinates":  [ 121.5483208,25.0236426 ]
    },
    "properties": {
    "city":"台北市",
    "district":"大安區",
    "type":"心理諮商所 ",
    "hosp_name":"天力亞太心理諮商所",
    "hosp_addr":"臺北市大安區敦化南路2段182號7樓",
    "online_available":"False",
    "mh_support_15_45":"False"
    }
  },
  {
    "type": "Feature",
    "geometry": {
       "type": "Point",
       "coordinates":  [ 121.5320828,25.0260782 ]
    },
    "properties": {
    "city":"台北市",
    "district":"大安區",
    "type":"心理治療所 ",
    "hosp_name":"淨開心心理治療所",
    "hosp_addr":"臺北市大安區和平東路1段218號5樓之1",
    "online_available":"True",
    "mh_support_15_45":"False"
    }
  },
  {
    "type": "Feature",
    "geometry": {
       "type": "Point",
       "coordinates":  [ 121.544334,25.0336189 ]
    },
    "properties": {
    "city":"台北市",
    "district":"大安區",
    "type":"心理治療所 ",
    "hosp_name":"福樂心理治療所",
    "hosp_addr":"臺北市大安區信義路4段58號12樓之3",
    "online_available":"True",
    "mh_support_15_45":"False"
    }
  },
  {
    "type": "Feature",
    "geometry": {
       "type": "Point",
       "coordinates":  [ 121.5473349,25.0266775 ]
    },
    "properties": {
    "city":"台北市",
    "district":"大安區",
    "type":"心理諮商所 ",
    "hosp_name":"盼心理諮商所",
    "hosp_addr":"臺北市大安區四維路198巷38弄11號3樓",
    "online_available":"True",
    "mh_support_15_45":"False"
    }
  },
  {
    "type": "Feature",
    "geometry": {
       "type": "Point",
       "coordinates":  [ 121.5435178,25.0418858 ]
    },
    "properties": {
    "city":"台北市",
    "district":"大安區",
    "type":"心理諮商所 ",
    "hosp_name":"看見心理諮商所",
    "hosp_addr":"臺北市大安區忠孝東路3段305號5樓之2",
    "online_available":"True",
    "mh_support_15_45":"False"
    }
  },
  {
    "type": "Feature",
    "geometry": {
       "type": "Point",
       "coordinates":  [ 121.5437554,25.0287514 ]
    },
    "properties": {
    "city":"台北市",
    "district":"大安區",
    "type":"心理治療所 ",
    "hosp_name":"力人心理治療所",
    "hosp_addr":"臺北市大安區復興南路2段139號10樓",
    "online_available":"True",
    "mh_support_15_45":"False"
    }
  },
  {
    "type": "Feature",
    "geometry": {
       "type": "Point",
       "coordinates":  [ 121.5328027,25.0284591 ]
    },
    "properties": {
    "city":"台北市",
    "district":"大安區",
    "type":"心理諮商所 ",
    "hosp_name":"國立臺灣師範大學社區諮商中心心田心理諮商所",
    "hosp_addr":"臺北市大安區青田街5巷16號",
    "online_available":"True",
    "mh_support_15_45":"True"
    }
  },
  {
    "type": "Feature",
    "geometry": {
       "type": "Point",
       "coordinates":  [ 121.5441081,25.0361309 ]
    },
    "properties": {
    "city":"台北市",
    "district":"大安區",
    "type":"心理諮商所 ",
    "hosp_name":"啟宗心理諮商所",
    "hosp_addr":"臺北市大安區東豐街7號5樓之2",
    "online_available":"True",
    "mh_support_15_45":"True"
    }
  },
  {
    "type": "Feature",
    "geometry": {
       "type": "Point",
       "coordinates":  [ 121.5389439,25.0253278 ]
    },
    "properties": {
    "city":"台北市",
    "district":"大安區",
    "type":"心理諮商所 ",
    "hosp_name":"愛心理諮商所",
    "hosp_addr":"臺北市大安區和平東路二段66號6樓之1",
    "online_available":"True",
    "mh_support_15_45":"True"
    }
  },
  {
    "type": "Feature",
    "geometry": {
       "type": "Point",
       "coordinates":  [ 121.5382801,25.0332575 ]
    },
    "properties": {
    "city":"台北市",
    "district":"大安區",
    "type":"心理治療所 ",
    "hosp_name":"心園心理治療所",
    "hosp_addr":"臺北市大安區信義路三段106號8樓之6",
    "online_available":"True",
    "mh_support_15_45":"False"
    }
  },
  {
    "type": "Feature",
    "geometry": {
       "type": "Point",
       "coordinates":  [ 121.5435216,25.0418985 ]
    },
    "properties": {
    "city":"台北市",
    "district":"大安區",
    "type":"心理諮商所 ",
    "hosp_name":"看見心理忠孝心理諮商所",
    "hosp_addr":"臺北市大安區忠孝東路三段305號5樓",
    "online_available":"True",
    "mh_support_15_45":"False"
    }
  },
  {
    "type": "Feature",
    "geometry": {
       "type": "Point",
       "coordinates":  [ 121.5432646,25.0331679 ]
    },
    "properties": {
    "city":"台北市",
    "district":"大安區",
    "type":"心理諮商所 ",
    "hosp_name":"毛蟲藝術心理諮商所",
    "hosp_addr":"臺北市大安區信義路3段202號6樓之1",
    "online_available":"True",
    "mh_support_15_45":"False"
    }
  },
  {
    "type": "Feature",
    "geometry": {
       "type": "Point",
       "coordinates":  [ 121.543064,25.0331708 ]
    },
    "properties": {
    "city":"台北市",
    "district":"大安區",
    "type":"心理治療所 ",
    "hosp_name":"童伴心理治療所",
    "hosp_addr":"臺北市大安區信義路3段190號6樓",
    "online_available":"True",
    "mh_support_15_45":"False"
    }
  },
  {
    "type": "Feature",
    "geometry": {
       "type": "Point",
       "coordinates":  [ 121.5258568,25.0230558 ]
    },
    "properties": {
    "city":"台北市",
    "district":"大安區",
    "type":"心理諮商所 ",
    "hosp_name":"心寓心理諮商所",
    "hosp_addr":"臺北市大安區羅斯福路3段61號2樓",
    "online_available":"True",
    "mh_support_15_45":"False"
    }
  },
  {
    "type": "Feature",
    "geometry": {
       "type": "Point",
       "coordinates":  [ 121.5229719,25.0267596 ]
    },
    "properties": {
    "city":"台北市",
    "district":"大安區",
    "type":"心理諮商所 ",
    "hosp_name":"國立臺北教育大學心理諮商暨健康促進研究中心芳蘭心理諮商所",
    "hosp_addr":"臺北市大安區和平東路2段134之18號",
    "online_available":"True",
    "mh_support_15_45":"False"
    }
  },
  {
    "type": "Feature",
    "geometry": {
       "type": "Point",
       "coordinates":  [ 121.5307549,25.0334493 ]
    },
    "properties": {
    "city":"台北市",
    "district":"大安區",
    "type":"心理諮商所 ",
    "hosp_name":"昕岸心理諮商所",
    "hosp_addr":"臺北市大安區信義路2段208號8樓",
    "online_available":"False",
    "mh_support_15_45":"False"
    }
  },
  {
    "type": "Feature",
    "geometry": {
       "type": "Point",
       "coordinates":  [ 121.5334554,25.0420032 ]
    },
    "properties": {
    "city":"台北市",
    "district":"大安區",
    "type":"心理諮商所 ",
    "hosp_name":"微光心理諮商所",
    "hosp_addr":"臺北市大安區忠孝東路4段341號10樓之3",
    "online_available":"True",
    "mh_support_15_45":"False"
    }
  },
  {
    "type": "Feature",
    "geometry": {
       "type": "Point",
       "coordinates":  [ 121.5370136,25.0456646 ]
    },
    "properties": {
    "city":"台北市",
    "district":"大安區",
    "type":"心理諮商所 ",
    "hosp_name":"竹心理諮商所",
    "hosp_addr":"臺北市大安區建國南路1段270巷29號1樓",
    "online_available":"False",
    "mh_support_15_45":"False"
    }
  },
  {
    "type": "Feature",
    "geometry": {
       "type": "Point",
       "coordinates":  [ 121.5492075,25.0327479 ]
    },
    "properties": {
    "city":"台北市",
    "district":"大安區",
    "type":"心理諮商所 ",
    "hosp_name":"芳嚮心理諮商所",
    "hosp_addr":"臺北市大安區敦化南路2段5號9樓之2",
    "online_available":"False",
    "mh_support_15_45":"False"
    }
  },
  {
    "type": "Feature",
    "geometry": {
       "type": "Point",
       "coordinates":  [ 121.5501064,25.0337489 ]
    },
    "properties": {
    "city":"台北市",
    "district":"大安區",
    "type":"心理諮商所 ",
    "hosp_name":"初和心理諮商所",
    "hosp_addr":"臺北市大安區信義路4段155號8樓",
    "online_available":"True",
    "mh_support_15_45":"False"
    }
  },
  {
    "type": "Feature",
    "geometry": {
       "type": "Point",
       "coordinates":  [ 121.537624,25.041499 ]
    },
    "properties": {
    "city":"台北市",
    "district":"大安區",
    "type":"心理治療所 ",
    "hosp_name":"伴旅心理治療所",
    "hosp_addr":"臺北市大安區忠孝東路三段136號7樓之3",
    "online_available":"True",
    "mh_support_15_45":"False"
    }
  },
  {
    "type": "Feature",
    "geometry": {
       "type": "Point",
       "coordinates":  [ 121.5441501,25.0361732 ]
    },
    "properties": {
    "city":"台北市",
    "district":"大安區",
    "type":"心理諮商所 ",
    "hosp_name":"格桑美度心理諮商所",
    "hosp_addr":"臺北市大安區東豐街7號14樓",
    "online_available":"True",
    "mh_support_15_45":"True"
    }
  },
  {
    "type": "Feature",
    "geometry": {
       "type": "Point",
       "coordinates":  [ 121.5429683,25.0331839 ]
    },
    "properties": {
    "city":"台北市",
    "district":"大安區",
    "type":"心理諮商所 ",
    "hosp_name":"同伴心理諮商所",
    "hosp_addr":"臺北市大安區信義路3段190號10樓",
    "online_available":"False",
    "mh_support_15_45":"False"
    }
  },
  {
    "type": "Feature",
    "geometry": {
       "type": "Point",
       "coordinates":  [ 121.5432568,25.0274624 ]
    },
    "properties": {
    "city":"台北市",
    "district":"大安區",
    "type":"心理諮商所 ",
    "hosp_name":"歸心心理諮商所",
    "hosp_addr":"臺北市大安區復興南路二段178號3樓",
    "online_available":"False",
    "mh_support_15_45":"True"
    }
  },
  {
    "type": "Feature",
    "geometry": {
       "type": "Point",
       "coordinates":  [ 121.5510462,25.0336366 ]
    },
    "properties": {
    "city":"台北市",
    "district":"大安區",
    "type":"心理諮商所 ",
    "hosp_name":"綻芯安和心理諮商所",
    "hosp_addr":"臺北市大安區信義路四段187號7樓",
    "online_available":"True",
    "mh_support_15_45":"True"
    }
  },
  {
    "type": "Feature",
    "geometry": {
       "type": "Point",
       "coordinates":  [ 121.5334554,25.0420032 ]
    },
    "properties": {
    "city":"台北市",
    "district":"大安區",
    "type":"心理諮商所 ",
    "hosp_name":"立翎心理諮商所",
    "hosp_addr":"臺北市大安區忠孝東路4段183號3樓之6",
    "online_available":"False",
    "mh_support_15_45":"False"
    }
  },
  {
    "type": "Feature",
    "geometry": {
       "type": "Point",
       "coordinates":  [ 121.5481987,25.0235941 ]
    },
    "properties": {
    "city":"台北市",
    "district":"大安區",
    "type":"心理治療所 ",
    "hosp_name":"邁愷爾心理治療所",
    "hosp_addr":"臺北市大安區敦化南路2段180號14樓之1",
    "online_available":"False",
    "mh_support_15_45":"False"
    }
  },
  {
    "type": "Feature",
    "geometry": {
       "type": "Point",
       "coordinates":  [ 121.5493515,25.0311977 ]
    },
    "properties": {
    "city":"台北市",
    "district":"大安區",
    "type":"心理治療所 ",
    "hosp_name":"日好心理治療所",
    "hosp_addr":"臺北市大安區敦化南路2段59號7樓之1",
    "online_available":"True",
    "mh_support_15_45":"False"
    }
  },
  {
    "type": "Feature",
    "geometry": {
       "type": "Point",
       "coordinates":  [ 121.544113,25.034036 ]
    },
    "properties": {
    "city":"台北市",
    "district":"大安區",
    "type":"心理諮商所",
    "hosp_name":"特殊情緒心理諮商所",
    "hosp_addr":"臺北市大安區復興南路1段380號3樓",
    "online_available":"True",
    "mh_support_15_45":"False"
    }
  },
  {
    "type": "Feature",
    "geometry": {
       "type": "Point",
       "coordinates":  [ 121.5540972,25.0333977 ]
    },
    "properties": {
    "city":"台北市",
    "district":"大安區",
    "type":"心理諮商所",
    "hosp_name":"輕輕說心理諮商所",
    "hosp_addr":"臺北市大安區信義路4段263號11樓之5",
    "online_available":"False",
    "mh_support_15_45":"False"
    }
  },
  {
    "type": "Feature",
    "geometry": {
       "type": "Point",
       "coordinates":  [ 121.5332197,25.02644 ]
    },
    "properties": {
    "city":"台北市",
    "district":"大安區",
    "type":"心理諮商所",
    "hosp_name":"沁心理諮商所",
    "hosp_addr":"臺北市大安區和平東路3段1巷56號2樓",
    "online_available":"False",
    "mh_support_15_45":"False"
    }
  },
  {
    "type": "Feature",
    "geometry": {
       "type": "Point",
       "coordinates":  [ 121.5334554,25.0420032 ]
    },
    "properties": {
    "city":"台北市",
    "district":"大安區",
    "type":"心理諮商所",
    "hosp_name":"晴韻心理諮商所",
    "hosp_addr":"臺北市大安區忠孝東路4段59號10樓之1",
    "online_available":"False",
    "mh_support_15_45":"False"
    }
  },
  {
    "type": "Feature",
    "geometry": {
       "type": "Point",
       "coordinates":  [ 121.5243128,25.053875 ]
    },
    "properties": {
    "city":"台北市",
    "district":"中山區",
    "type":"心理治療所 ",
    "hosp_name":"青蘊心理治療所",
    "hosp_addr":"臺北市中山區中山北路2段39巷10號5樓",
    "online_available":"False",
    "mh_support_15_45":"False"
    }
  },
  {
    "type": "Feature",
    "geometry": {
       "type": "Point",
       "coordinates":  [ 121.522148,25.0577164 ]
    },
    "properties": {
    "city":"台北市",
    "district":"中山區",
    "type":"心理治療所 ",
    "hosp_name":"馨培心理治療所",
    "hosp_addr":"臺北市中山區10448民生西路16號3樓之2",
    "online_available":"True",
    "mh_support_15_45":"False"
    }
  },
  {
    "type": "Feature",
    "geometry": {
       "type": "Point",
       "coordinates":  [ 121.5281835,25.051898 ]
    },
    "properties": {
    "city":"台北市",
    "district":"中山區",
    "type":"心理諮商所 ",
    "hosp_name":"一二心理諮商所",
    "hosp_addr":"臺北市中山區南京東路2段176號11樓",
    "online_available":"True",
    "mh_support_15_45":"False"
    }
  },
  {
    "type": "Feature",
    "geometry": {
       "type": "Point",
       "coordinates":  [ 121.5437574,25.0542781 ]
    },
    "properties": {
    "city":"台北市",
    "district":"中山區",
    "type":"心理諮商所 ",
    "hosp_name":"愛的心理諮商所",
    "hosp_addr":"臺北市中山區復興北路178號4樓之9",
    "online_available":"False",
    "mh_support_15_45":"False"
    }
  },
  {
    "type": "Feature",
    "geometry": {
       "type": "Point",
       "coordinates":  [ 121.521914,25.049564 ]
    },
    "properties": {
    "city":"台北市",
    "district":"中山區",
    "type":"心理諮商所 ",
    "hosp_name":"亞和心理諮商所",
    "hosp_addr":"臺北市中山區長安東路2段189號7樓之8",
    "online_available":"False",
    "mh_support_15_45":"False"
    }
  },
  {
    "type": "Feature",
    "geometry": {
       "type": "Point",
       "coordinates":  [ 121.546705,25.08225 ]
    },
    "properties": {
    "city":"台北市",
    "district":"中山區",
    "type":"心理治療所 ",
    "hosp_name":"晴風心理治療所",
    "hosp_addr":"臺北市中山區大直街33巷5號",
    "online_available":"False",
    "mh_support_15_45":"False"
    }
  },
  {
    "type": "Feature",
    "geometry": {
       "type": "Point",
       "coordinates":  [ 121.5437491,25.0586492 ]
    },
    "properties": {
    "city":"台北市",
    "district":"中山區",
    "type":"心理諮商所 ",
    "hosp_name":"綻芯心理諮商所",
    "hosp_addr":"臺北市中山區復興北路280巷2號3樓",
    "online_available":"True",
    "mh_support_15_45":"True"
    }
  },
  {
    "type": "Feature",
    "geometry": {
       "type": "Point",
       "coordinates":  [ 121.5303885,25.0609284 ]
    },
    "properties": {
    "city":"台北市",
    "district":"中山區",
    "type":"心理諮商所 ",
    "hosp_name":"以賽亞心理諮商所",
    "hosp_addr":"臺北市中山區吉林路231號3樓",
    "online_available":"True",
    "mh_support_15_45":"True"
    }
  },
  {
    "type": "Feature",
    "geometry": {
       "type": "Point",
       "coordinates":  [ 121.5535293,25.0834596 ]
    },
    "properties": {
    "city":"台北市",
    "district":"中山區",
    "type":"心理諮商所 ",
    "hosp_name":"蘇予昕心理諮商所",
    "hosp_addr":"臺北市中山區敬業一路128巷39號4F之2及3樓之1",
    "online_available":"True",
    "mh_support_15_45":"False"
    }
  },
  {
    "type": "Feature",
    "geometry": {
       "type": "Point",
       "coordinates":  [ 121.5229492,25.0520241 ]
    },
    "properties": {
    "city":"台北市",
    "district":"中山區",
    "type":"心理治療所 ",
    "hosp_name":"知我心理治療所",
    "hosp_addr":"臺北市中山區南京東路一段2號11樓",
    "online_available":"False",
    "mh_support_15_45":"False"
    }
  },
  {
    "type": "Feature",
    "geometry": {
       "type": "Point",
       "coordinates":  [ 121.5373948,25.0581536 ]
    },
    "properties": {
    "city":"台北市",
    "district":"中山區",
    "type":"心理諮商所 ",
    "hosp_name":"舒心心理諮商所",
    "hosp_addr":"臺北市中山區民生東路1段42號11樓之2",
    "online_available":"False",
    "mh_support_15_45":"False"
    }
  },
  {
    "type": "Feature",
    "geometry": {
       "type": "Point",
       "coordinates":  [ 121.5334271,25.0605856 ]
    },
    "properties": {
    "city":"台北市",
    "district":"中山區",
    "type":"心理諮商所 ",
    "hosp_name":"點亮心燈諮商中心心理諮商所",
    "hosp_addr":"臺北市中山區松江路289-910號",
    "online_available":"True",
    "mh_support_15_45":"False"
    }
  },
  {
    "type": "Feature",
    "geometry": {
       "type": "Point",
       "coordinates":  [ 121.5227432,25.065081 ]
    },
    "properties": {
    "city":"台北市",
    "district":"中山區",
    "type":"心理諮商所 ",
    "hosp_name":"向日葵心理諮商所",
    "hosp_addr":"臺北市中山區中山北路三段30號3樓之2",
    "online_available":"False",
    "mh_support_15_45":"True"
    }
  },
  {
    "type": "Feature",
    "geometry": {
       "type": "Point",
       "coordinates":  [ 121.5374136,25.0581669 ]
    },
    "properties": {
    "city":"台北市",
    "district":"中山區",
    "type":"心理治療所 ",
    "hosp_name":"山陵路聆心理治療所",
    "hosp_addr":"臺北市中山區民生東路1段42號7樓",
    "online_available":"False",
    "mh_support_15_45":"False"
    }
  },
  {
    "type": "Feature",
    "geometry": {
       "type": "Point",
       "coordinates":  [ 121.5328787,25.0577183 ]
    },
    "properties": {
    "city":"台北市",
    "district":"中山區",
    "type":"心理諮商所 ",
    "hosp_name":"蘊寬心理諮商所",
    "hosp_addr":"臺北市中山區松江路206號9樓之1",
    "online_available":"True",
    "mh_support_15_45":"True"
    }
  },
  {
    "type": "Feature",
    "geometry": {
       "type": "Point",
       "coordinates":  [ 121.5529992,25.082106 ]
    },
    "properties": {
    "city":"台北市",
    "district":"中山區",
    "type":"心理治療所 ",
    "hosp_name":"幼思心理治療所",
    "hosp_addr":"臺北市中山區敬業二路69巷55號2樓",
    "online_available":"False",
    "mh_support_15_45":"False"
    }
  },
  {
    "type": "Feature",
    "geometry": {
       "type": "Point",
       "coordinates":  [ 121.5299246,25.0512544 ]
    },
    "properties": {
    "city":"台北市",
    "district":"中山區",
    "type":"心理治療所 ",
    "hosp_name":"初色心理治療所",
    "hosp_addr":"臺北市中山區吉林路24號10樓、10樓之1",
    "online_available":"True",
    "mh_support_15_45":"False"
    }
  },
  {
    "type": "Feature",
    "geometry": {
       "type": "Point",
       "coordinates":  [ 121.5209408,25.0611439 ]
    },
    "properties": {
    "city":"台北市",
    "district":"中山區",
    "type":"心理諮商所 ",
    "hosp_name":"天光心理諮商所",
    "hosp_addr":"臺北市中山區天祥路22號2樓",
    "online_available":"False",
    "mh_support_15_45":"True"
    }
  },
  {
    "type": "Feature",
    "geometry": {
       "type": "Point",
       "coordinates":  [ 121.543748,25.0556722 ]
    },
    "properties": {
    "city":"台北市",
    "district":"中山區",
    "type":"心理諮商所 ",
    "hosp_name":"2042心理諮商所",
    "hosp_addr":"臺北市中山區復興北路204號2樓",
    "online_available":"False",
    "mh_support_15_45":"True"
    }
  },
  {
    "type": "Feature",
    "geometry": {
       "type": "Point",
       "coordinates":  [ 121.5436562,25.0500899 ]
    },
    "properties": {
    "city":"台北市",
    "district":"中山區",
    "type":"心理治療所 ",
    "hosp_name":"伴旅馥心心理治療所",
    "hosp_addr":"臺北市中山區復興北路58號7樓",
    "online_available":"True",
    "mh_support_15_45":"False"
    }
  },
  {
    "type": "Feature",
    "geometry": {
       "type": "Point",
       "coordinates":  [ 121.545347,25.081207 ]
    },
    "properties": {
    "city":"台北市",
    "district":"中山區",
    "type":"心理諮商所",
    "hosp_name":"張老師基金會台北心理諮商所",
    "hosp_addr":"臺北市中山區大直街20巷16號",
    "online_available":"False",
    "mh_support_15_45":"False"
    }
  },
  {
    "type": "Feature",
    "geometry": {
       "type": "Point",
       "coordinates":  [ 121.5231886,25.0597422 ]
    },
    "properties": {
    "city":"台北市",
    "district":"中山區",
    "type":"心理諮商所",
    "hosp_name":"元思心理諮商所",
    "hosp_addr":"臺北市中山區中山北路2段99號3樓之1",
    "online_available":"False",
    "mh_support_15_45":"False"
    }
  },
  {
    "type": "Feature",
    "geometry": {
       "type": "Point",
       "coordinates":  [ 121.5376791,25.0576372 ]
    },
    "properties": {
    "city":"台北市",
    "district":"中山區",
    "type":"心理諮商所",
    "hosp_name":"謐鏡心理諮商所",
    "hosp_addr":"臺北市中山區民生東路2段83號3樓之47",
    "online_available":"False",
    "mh_support_15_45":"False"
    }
  },
  {
    "type": "Feature",
    "geometry": {
       "type": "Point",
       "coordinates":  [ 121.5281835,25.051898 ]
    },
    "properties": {
    "city":"台北市",
    "district":"中山區",
    "type":"心理諮商所",
    "hosp_name":"Enteroom心理諮商所",
    "hosp_addr":"臺北市中山區南京東路2段90號20樓之3",
    "online_available":"False",
    "mh_support_15_45":"False"
    }
  },
  {
    "type": "Feature",
    "geometry": {
       "type": "Point",
       "coordinates":  [ 121.5226127,25.0526041 ]
    },
    "properties": {
    "city":"台北市",
    "district":"中正區",
    "type":"心理治療所 ",
    "hosp_name":"冬青心理治療所",
    "hosp_addr":"臺北市中正區中山北路1段2號6樓之6",
    "online_available":"True",
    "mh_support_15_45":"False"
    }
  },
  {
    "type": "Feature",
    "geometry": {
       "type": "Point",
       "coordinates":  [ 121.5238532,25.0247803 ]
    },
    "properties": {
    "city":"台北市",
    "district":"中正區",
    "type":"心理諮商所 ",
    "hosp_name":"暖心全人諮商中心心理諮商所",
    "hosp_addr":"臺北市中正區羅斯福路2段198號6樓之5",
    "online_available":"True",
    "mh_support_15_45":"False"
    }
  },
  {
    "type": "Feature",
    "geometry": {
       "type": "Point",
       "coordinates":  [ 121.510809,25.0423319 ]
    },
    "properties": {
    "city":"台北市",
    "district":"中正區",
    "type":"心理諮商所 ",
    "hosp_name":"初衷心理諮商所",
    "hosp_addr":"臺北市中正區衡陽路85號4樓之5",
    "online_available":"True",
    "mh_support_15_45":"False"
    }
  },
  {
    "type": "Feature",
    "geometry": {
       "type": "Point",
       "coordinates":  [ 121.5232316,25.0214897 ]
    },
    "properties": {
    "city":"台北市",
    "district":"中正區",
    "type":"心理諮商所 ",
    "hosp_name":"心晨心理諮商所",
    "hosp_addr":"臺北市中正區金門街15號3樓",
    "online_available":"True",
    "mh_support_15_45":"False"
    }
  },
  {
    "type": "Feature",
    "geometry": {
       "type": "Point",
       "coordinates":  [ 121.52432,25.0240379 ]
    },
    "properties": {
    "city":"台北市",
    "district":"中正區",
    "type":"心理諮商所 ",
    "hosp_name":"心曦心理諮商所",
    "hosp_addr":"臺北市中正區南昌路2段206號7樓",
    "online_available":"True",
    "mh_support_15_45":"False"
    }
  },
  {
    "type": "Feature",
    "geometry": {
       "type": "Point",
       "coordinates":  [ 121.5157366,25.0299973 ]
    },
    "properties": {
    "city":"台北市",
    "district":"中正區",
    "type":"心理諮商所 ",
    "hosp_name":"點晴心理諮商所",
    "hosp_addr":"臺北市中正區寧波西街87號7樓之2",
    "online_available":"True",
    "mh_support_15_45":"True"
    }
  },
  {
    "type": "Feature",
    "geometry": {
       "type": "Point",
       "coordinates":  [ 121.5158208,25.0457716 ]
    },
    "properties": {
    "city":"台北市",
    "district":"中正區",
    "type":"心理諮商所 ",
    "hosp_name":"小隱心理諮商所",
    "hosp_addr":"臺北市中正區忠孝西路一段50號18F之14",
    "online_available":"False",
    "mh_support_15_45":"False"
    }
  },
  {
    "type": "Feature",
    "geometry": {
       "type": "Point",
       "coordinates":  [ 121.5183852,25.0463031 ]
    },
    "properties": {
    "city":"台北市",
    "district":"中正區",
    "type":"心理諮商所 ",
    "hosp_name":"璞願心理諮商所",
    "hosp_addr":"臺北市中正區忠孝西路一段41號10樓之17",
    "online_available":"False",
    "mh_support_15_45":"True"
    }
  },
  {
    "type": "Feature",
    "geometry": {
       "type": "Point",
       "coordinates":  [ 121.5157209,25.0461002 ]
    },
    "properties": {
    "city":"台北市",
    "district":"中正區",
    "type":"心理諮商所 ",
    "hosp_name":"沐昂心理諮商所",
    "hosp_addr":"臺北市中正區忠孝西路一段50號17樓之13",
    "online_available":"False",
    "mh_support_15_45":"True"
    }
  },
  {
    "type": "Feature",
    "geometry": {
       "type": "Point",
       "coordinates":  [ 121.511328,25.0446759 ]
    },
    "properties": {
    "city":"台北市",
    "district":"中正區",
    "type":"心理諮商所 ",
    "hosp_name":"擁抱心理博愛館心理諮商所",
    "hosp_addr":"臺北市中正區博愛路76號10樓之2",
    "online_available":"True",
    "mh_support_15_45":"True"
    }
  },
  {
    "type": "Feature",
    "geometry": {
       "type": "Point",
       "coordinates":  [ 121.5208288,25.0288584 ]
    },
    "properties": {
    "city":"台北市",
    "district":"中正區",
    "type":"心理治療所 ",
    "hosp_name":"盛開兒青心理治療所",
    "hosp_addr":"臺北市中正區羅斯福路二段10號5樓",
    "online_available":"False",
    "mh_support_15_45":"False"
    }
  },
  {
    "type": "Feature",
    "geometry": {
       "type": "Point",
       "coordinates":  [ 121.5212607,25.027057 ]
    },
    "properties": {
    "city":"台北市",
    "district":"中正區",
    "type":"心理諮商所 ",
    "hosp_name":"好窩心理諮商所",
    "hosp_addr":"臺北市中正區和平西路一段17號3樓",
    "online_available":"True",
    "mh_support_15_45":"True"
    }
  },
  {
    "type": "Feature",
    "geometry": {
       "type": "Point",
       "coordinates":  [ 121.5239457,25.0243047 ]
    },
    "properties": {
    "city":"台北市",
    "district":"中正區",
    "type":"心理諮商所 ",
    "hosp_name":"暖心泉恩心理諮商所",
    "hosp_addr":"臺北市中正區南昌路2段192號8樓之2",
    "online_available":"False",
    "mh_support_15_45":"False"
    }
  },
  {
    "type": "Feature",
    "geometry": {
       "type": "Point",
       "coordinates":  [ 121.5151076,25.0631951 ]
    },
    "properties": {
    "city":"台北市",
    "district":"中正區",
    "type":"心理諮商所 ",
    "hosp_name":"可言心理諮商所",
    "hosp_addr":"臺北市中正區忠孝西路1段50號13樓",
    "online_available":"False",
    "mh_support_15_45":"False"
    }
  },
  {
    "type": "Feature",
    "geometry": {
       "type": "Point",
       "coordinates":  [ 121.5248865,25.0458983 ]
    },
    "properties": {
    "city":"台北市",
    "district":"中正區",
    "type":"心理諮商所 ",
    "hosp_name":"彩虹樹心理諮商所",
    "hosp_addr":"臺北市中正區北平東路20號3樓",
    "online_available":"False",
    "mh_support_15_45":"False"
    }
  },
  {
    "type": "Feature",
    "geometry": {
       "type": "Point",
       "coordinates":  [ 121.522008,25.027219 ]
    },
    "properties": {
    "city":"台北市",
    "district":"中正區",
    "type":"心理治療所 ",
    "hosp_name":"吉兒心理治療所",
    "hosp_addr":"臺北市中正區羅斯福路2段70號9樓",
    "online_available":"False",
    "mh_support_15_45":"False"
    }
  },
  {
    "type": "Feature",
    "geometry": {
       "type": "Point",
       "coordinates":  [ 121.5217088,25.0277483 ]
    },
    "properties": {
    "city":"台北市",
    "district":"中正區",
    "type":"心理諮商所 ",
    "hosp_name":"昕心理諮商所",
    "hosp_addr":"臺北市中正區羅斯福路2段56號7樓",
    "online_available":"False",
    "mh_support_15_45":"False"
    }
  },
  {
    "type": "Feature",
    "geometry": {
       "type": "Point",
       "coordinates":  [ 121.531369,25.033844 ]
    },
    "properties": {
    "city":"台北市",
    "district":"中正區",
    "type":"心理諮商所 ",
    "hosp_name":"時醞心理諮商所",
    "hosp_addr":"臺北市中正區信義路2段251號7樓之1",
    "online_available":"False",
    "mh_support_15_45":"False"
    }
  },
  {
    "type": "Feature",
    "geometry": {
       "type": "Point",
       "coordinates":  [ 121.5134147,25.0468814 ]
    },
    "properties": {
    "city":"台北市",
    "district":"中正區",
    "type":"心理諮商所",
    "hosp_name":"諦聽心理諮商所",
    "hosp_addr":"臺北市中正區重慶南路1段121號7樓之6",
    "online_available":"False",
    "mh_support_15_45":"False"
    }
  },
  {
    "type": "Feature",
    "geometry": {
       "type": "Point",
       "coordinates":  [ 121.5146888,25.0452642 ]
    },
    "properties": {
    "city":"台北市",
    "district":"中正區",
    "type":"心理治療所",
    "hosp_name":"沁芳心理治療所",
    "hosp_addr":"臺北市中正區漢口街1段85號6樓之9",
    "online_available":"False",
    "mh_support_15_45":"False"
    }
  },
  {
    "type": "Feature",
    "geometry": {
       "type": "Point",
       "coordinates":  [ 121.5269184,25.0436513 ]
    },
    "properties": {
    "city":"台北市",
    "district":"中正區",
    "type":"心理諮商所",
    "hosp_name":"開心心理諮商所",
    "hosp_addr":"臺北市中正區杭州南路1段131巷35-1號",
    "online_available":"False",
    "mh_support_15_45":"False"
    }
  },
  {
    "type": "Feature",
    "geometry": {
       "type": "Point",
       "coordinates":  [ 121.5342521,25.0145754 ]
    },
    "properties": {
    "city":"台北市",
    "district":"中正區",
    "type":"心理諮商所",
    "hosp_name":"安然心理諮商所",
    "hosp_addr":"臺北市中正區羅斯福路4段68號8樓之10",
    "online_available":"False",
    "mh_support_15_45":"False"
    }
  },
  {
    "type": "Feature",
    "geometry": {
       "type": "Point",
       "coordinates":  [ 121.5595503,25.0337741 ]
    },
    "properties": {
    "city":"台北市",
    "district":"中正區",
    "type":"心理治療所",
    "hosp_name":"捷思心理治療所",
    "hosp_addr":"臺北市中正區忠孝東路2段100號5樓之7",
    "online_available":"False",
    "mh_support_15_45":"False"
    }
  },
  {
    "type": "Feature",
    "geometry": {
       "type": "Point",
       "coordinates":  [ 121.5134147,25.0468814 ]
    },
    "properties": {
    "city":"台北市",
    "district":"中正區",
    "type":"心理諮商所",
    "hosp_name":"蘅芯心理諮商所",
    "hosp_addr":"臺北市中正區重慶南路1段99號11樓之6",
    "online_available":"False",
    "mh_support_15_45":"False"
    }
  },
  {
    "type": "Feature",
    "geometry": {
       "type": "Point",
       "coordinates":  [ 121.5916123,25.0817734 ]
    },
    "properties": {
    "city":"台北市",
    "district":"內湖區",
    "type":"心理諮商所 ",
    "hosp_name":"擁抱心理諮商所",
    "hosp_addr":"臺北市內湖區成功路四段32號4樓",
    "online_available":"True",
    "mh_support_15_45":"True"
    }
  },
  {
    "type": "Feature",
    "geometry": {
       "type": "Point",
       "coordinates":  [ 121.5753552,25.083045 ]
    },
    "properties": {
    "city":"台北市",
    "district":"內湖區",
    "type":"心理諮商所 ",
    "hosp_name":"詠安心理諮商所",
    "hosp_addr":"臺北市內湖區港華街57號",
    "online_available":"True",
    "mh_support_15_45":"True"
    }
  },
  {
    "type": "Feature",
    "geometry": {
       "type": "Point",
       "coordinates":  [ 121.574965,25.0758038 ]
    },
    "properties": {
    "city":"台北市",
    "district":"內湖區",
    "type":"心理治療所 ",
    "hosp_name":"易思腦心理治療所",
    "hosp_addr":"臺北市內湖區港墘路187號10樓",
    "online_available":"False",
    "mh_support_15_45":"False"
    }
  },
  {
    "type": "Feature",
    "geometry": {
       "type": "Point",
       "coordinates":  [ 121.608352,25.071065 ]
    },
    "properties": {
    "city":"台北市",
    "district":"內湖區",
    "type":"心理治療所 ",
    "hosp_name":"好好玩心理治療所",
    "hosp_addr":"臺北市內湖區康寧路三段16巷78號1樓",
    "online_available":"False",
    "mh_support_15_45":"False"
    }
  },
  {
    "type": "Feature",
    "geometry": {
       "type": "Point",
       "coordinates":  [ 121.5737282,25.0808245 ]
    },
    "properties": {
    "city":"台北市",
    "district":"內湖區",
    "type":"心理諮商所 ",
    "hosp_name":"如初薩提爾心理諮商所",
    "hosp_addr":"臺北市內湖區內湖路一段607號2樓",
    "online_available":"False",
    "mh_support_15_45":"False"
    }
  },
  {
    "type": "Feature",
    "geometry": {
       "type": "Point",
       "coordinates":  [ 121.5921914,25.0824733 ]
    },
    "properties": {
    "city":"台北市",
    "district":"內湖區",
    "type":"心理諮商所 ",
    "hosp_name":"沐云心理諮商所",
    "hosp_addr":"臺北市內湖區成功路四段30巷49號2樓",
    "online_available":"True",
    "mh_support_15_45":"False"
    }
  },
  {
    "type": "Feature",
    "geometry": {
       "type": "Point",
       "coordinates":  [ 121.5929446,25.0839716 ]
    },
    "properties": {
    "city":"台北市",
    "district":"內湖區",
    "type":"心理諮商所 ",
    "hosp_name":"擁抱心藝心理諮商所",
    "hosp_addr":"臺北市內湖區內湖路二段466號2樓",
    "online_available":"False",
    "mh_support_15_45":"True"
    }
  },
  {
    "type": "Feature",
    "geometry": {
       "type": "Point",
       "coordinates":  [ 121.5677716,25.0806142 ]
    },
    "properties": {
    "city":"台北市",
    "district":"內湖區",
    "type":"心理諮商所 ",
    "hosp_name":"財團法人中華民國兒童福利聯盟文教基金會附設心理諮商所",
    "hosp_addr":"臺北市內湖區瑞光路583巷21號7樓之4之5",
    "online_available":"False",
    "mh_support_15_45":"False"
    }
  },
  {
    "type": "Feature",
    "geometry": {
       "type": "Point",
       "coordinates":  [ 121.6139731,25.0664703 ]
    },
    "properties": {
    "city":"台北市",
    "district":"內湖區",
    "type":"心理諮商所 ",
    "hosp_name":"螺旋梯心理諮商所",
    "hosp_addr":"臺北市內湖區安康路261巷7號1樓",
    "online_available":"False",
    "mh_support_15_45":"True"
    }
  },
  {
    "type": "Feature",
    "geometry": {
       "type": "Point",
       "coordinates":  [ 121.542798,24.9902076 ]
    },
    "properties": {
    "city":"台北市",
    "district":"文山區",
    "type":"心理諮商所 ",
    "hosp_name":"羅吉斯心理諮商所",
    "hosp_addr":"臺北市文山區景興路258號9樓",
    "online_available":"False",
    "mh_support_15_45":"False"
    }
  },
  {
    "type": "Feature",
    "geometry": {
       "type": "Point",
       "coordinates":  [ 121.5469051,24.996331 ]
    },
    "properties": {
    "city":"台北市",
    "district":"文山區",
    "type":"心理治療所 ",
    "hosp_name":"余老師心理治療所",
    "hosp_addr":"臺北市文山區景華街121巷4號2樓",
    "online_available":"False",
    "mh_support_15_45":"False"
    }
  },
  {
    "type": "Feature",
    "geometry": {
       "type": "Point",
       "coordinates":  [ 121.5592328,24.9886177 ]
    },
    "properties": {
    "city":"台北市",
    "district":"文山區",
    "type":"心理諮商所 ",
    "hosp_name":"利伯他茲心理諮商所",
    "hosp_addr":"臺北市文山區木柵路二段62號2樓",
    "online_available":"True",
    "mh_support_15_45":"True"
    }
  },
  {
    "type": "Feature",
    "geometry": {
       "type": "Point",
       "coordinates":  [ 121.5413586,24.9943088 ]
    },
    "properties": {
    "city":"台北市",
    "district":"文山區",
    "type":"心理諮商所 ",
    "hosp_name":"依懷心理諮商所",
    "hosp_addr":"臺北市文山區羅斯福路6段297號6樓",
    "online_available":"True",
    "mh_support_15_45":"False"
    }
  },
  {
    "type": "Feature",
    "geometry": {
       "type": "Point",
       "coordinates":  [ 121.539372,25.000268 ]
    },
    "properties": {
    "city":"台北市",
    "district":"文山區",
    "type":"心理諮商所 ",
    "hosp_name":"島語心理諮商所",
    "hosp_addr":"臺北市文山區羅斯福路6段10號4樓之2",
    "online_available":"False",
    "mh_support_15_45":"False"
    }
  },
  {
    "type": "Feature",
    "geometry": {
       "type": "Point",
       "coordinates":  [ 121.5408151,24.9922868 ]
    },
    "properties": {
    "city":"台北市",
    "district":"文山區",
    "type":"心理治療所 ",
    "hosp_name":"拾月拾日心理治療所",
    "hosp_addr":"臺北市文山區羅斯福路6段391號2樓",
    "online_available":"True",
    "mh_support_15_45":"False"
    }
  },
  {
    "type": "Feature",
    "geometry": {
       "type": "Point",
       "coordinates":  [ 121.538051,25.0037832 ]
    },
    "properties": {
    "city":"台北市",
    "district":"文山區",
    "type":"心理諮商所",
    "hosp_name":"微白心理諮商所",
    "hosp_addr":"臺北市文山區羅斯福路5段176巷3弄7號4樓",
    "online_available":"False",
    "mh_support_15_45":"False"
    }
  },
  {
    "type": "Feature",
    "geometry": {
       "type": "Point",
       "coordinates":  [ 121.5109806,25.113698 ]
    },
    "properties": {
    "city":"台北市",
    "district":"北投區",
    "type":"心理治療所 ",
    "hosp_name":"天母愛舒眠心理治療所",
    "hosp_addr":"臺北市北投區石牌路一段71巷3弄3號1樓",
    "online_available":"True",
    "mh_support_15_45":"True"
    }
  },
  {
    "type": "Feature",
    "geometry": {
       "type": "Point",
       "coordinates":  [ 121.516844,25.1118929 ]
    },
    "properties": {
    "city":"台北市",
    "district":"北投區",
    "type":"心理諮商所 ",
    "hosp_name":"心不懶心理諮商所",
    "hosp_addr":"臺北市北投區西安街1段165巷9弄1號1樓、地下1樓",
    "online_available":"True",
    "mh_support_15_45":"False"
    }
  },
  {
    "type": "Feature",
    "geometry": {
       "type": "Point",
       "coordinates":  [ 121.5139064,25.1183984 ]
    },
    "properties": {
    "city":"台北市",
    "district":"北投區",
    "type":"心理治療所 ",
    "hosp_name":"辰光心理治療所",
    "hosp_addr":"臺北市北投區立農街2段202巷2弄1號1樓、地下1樓",
    "online_available":"False",
    "mh_support_15_45":"False"
    }
  },
  {
    "type": "Feature",
    "geometry": {
       "type": "Point",
       "coordinates":  [ 121.5750666,25.0498571 ]
    },
    "properties": {
    "city":"台北市",
    "district":"松山區",
    "type":"心理諮商所 ",
    "hosp_name":"頭陀心理諮商所",
    "hosp_addr":"臺北市松山區八德路四段650號13樓之12",
    "online_available":"False",
    "mh_support_15_45":"False"
    }
  },
  {
    "type": "Feature",
    "geometry": {
       "type": "Point",
       "coordinates":  [ 121.5544658,25.0447403 ]
    },
    "properties": {
    "city":"台北市",
    "district":"松山區",
    "type":"心理治療所 ",
    "hosp_name":"聊聊心理治療所",
    "hosp_addr":"臺北市松山區八德路3段106巷67號1樓",
    "online_available":"True",
    "mh_support_15_45":"False"
    }
  },
  {
    "type": "Feature",
    "geometry": {
       "type": "Point",
       "coordinates":  [ 121.5546859,25.0513931 ]
    },
    "properties": {
    "city":"台北市",
    "district":"松山區",
    "type":"心理諮商所 ",
    "hosp_name":"逸想心理諮商所",
    "hosp_addr":"臺北市松山區南京東路4段164號4樓之4",
    "online_available":"False",
    "mh_support_15_45":"False"
    }
  },
  {
    "type": "Feature",
    "geometry": {
       "type": "Point",
       "coordinates":  [ 121.5556082,25.0584343 ]
    },
    "properties": {
    "city":"台北市",
    "district":"松山區",
    "type":"心理治療所 ",
    "hosp_name":"賦能心理治療所",
    "hosp_addr":"臺北市松山區民生東路5段202之3號1樓",
    "online_available":"True",
    "mh_support_15_45":"False"
    }
  },
  {
    "type": "Feature",
    "geometry": {
       "type": "Point",
       "coordinates":  [ 121.5546859,25.0513931 ]
    },
    "properties": {
    "city":"台北市",
    "district":"松山區",
    "type":"心理治療所 ",
    "hosp_name":"山曉心理治療所",
    "hosp_addr":"臺北市松山區南京東路4段186號12樓之8",
    "online_available":"False",
    "mh_support_15_45":"False"
    }
  },
  {
    "type": "Feature",
    "geometry": {
       "type": "Point",
       "coordinates":  [ 121.5626677,25.0512314 ]
    },
    "properties": {
    "city":"台北市",
    "district":"松山區",
    "type":"心理諮商所 ",
    "hosp_name":"我們心理諮商所",
    "hosp_addr":"臺北市松山區南京東路五段154號9樓",
    "online_available":"True",
    "mh_support_15_45":"False"
    }
  },
  {
    "type": "Feature",
    "geometry": {
       "type": "Point",
       "coordinates":  [ 121.5546859,25.0513931 ]
    },
    "properties": {
    "city":"台北市",
    "district":"松山區",
    "type":"心理治療所 ",
    "hosp_name":"耕云心理治療所",
    "hosp_addr":"臺北市松山區南京東路4段95號10樓",
    "online_available":"True",
    "mh_support_15_45":"False"
    }
  },
  {
    "type": "Feature",
    "geometry": {
       "type": "Point",
       "coordinates":  [ 121.5534632,25.0514424 ]
    },
    "properties": {
    "city":"台北市",
    "district":"松山區",
    "type":"心理治療所 ",
    "hosp_name":"轉轉心理治療所",
    "hosp_addr":"臺北市松山區南京東路四段50號9樓之6",
    "online_available":"False",
    "mh_support_15_45":"False"
    }
  },
  {
    "type": "Feature",
    "geometry": {
       "type": "Point",
       "coordinates":  [ 121.5761748,25.049782 ]
    },
    "properties": {
    "city":"台北市",
    "district":"松山區",
    "type":"心理諮商所 ",
    "hosp_name":"愛牽手心理諮商所",
    "hosp_addr":"臺北市松山區八德路4段666號6樓之1",
    "online_available":"False",
    "mh_support_15_45":"False"
    }
  },
  {
    "type": "Feature",
    "geometry": {
       "type": "Point",
       "coordinates":  [ 121.5530607,25.0460278 ]
    },
    "properties": {
    "city":"台北市",
    "district":"松山區",
    "type":"心理諮商所 ",
    "hosp_name":"劉玉文心理諮商所",
    "hosp_addr":"臺北市松山區延吉街30巷7號3樓",
    "online_available":"True",
    "mh_support_15_45":"False"
    }
  },
  {
    "type": "Feature",
    "geometry": {
       "type": "Point",
       "coordinates":  [ 121.557917,25.0599965 ]
    },
    "properties": {
    "city":"台北市",
    "district":"松山區",
    "type":"心理諮商所 ",
    "hosp_name":"象家園心理諮商所",
    "hosp_addr":"臺北市松山區民生東路5段69巷25號1樓",
    "online_available":"True",
    "mh_support_15_45":"False"
    }
  },
  {
    "type": "Feature",
    "geometry": {
       "type": "Point",
       "coordinates":  [ 121.5443178,25.0548233 ]
    },
    "properties": {
    "city":"台北市",
    "district":"松山區",
    "type":"心理諮商所 ",
    "hosp_name":"財團法人加惠文教基金會附設心理諮商所",
    "hosp_addr":"臺北市松山區復興北路181號7樓之5",
    "online_available":"True",
    "mh_support_15_45":"True"
    }
  },
  {
    "type": "Feature",
    "geometry": {
       "type": "Point",
       "coordinates":  [ 121.5576533,25.0504792 ]
    },
    "properties": {
    "city":"台北市",
    "district":"松山區",
    "type":"心理諮商所",
    "hosp_name":"之間心理治療所",
    "hosp_addr":"臺北市松山區光復北路98號9樓之1",
    "online_available":"False",
    "mh_support_15_45":"False"
    }
  },
  {
    "type": "Feature",
    "geometry": {
       "type": "Point",
       "coordinates":  [ 121.5675898,25.0563998 ]
    },
    "properties": {
    "city":"台北市",
    "district":"松山區",
    "type":"心理治療所 ",
    "hosp_name":"覓汨心理治療所",
    "hosp_addr":"臺北市松山區健康路325巷24弄8號",
    "online_available":"False",
    "mh_support_15_45":"True"
    }
  },
  {
    "type": "Feature",
    "geometry": {
       "type": "Point",
       "coordinates":  [ 121.5780935,25.0405722 ]
    },
    "properties": {
    "city":"台北市",
    "district":"信義區",
    "type":"心理治療所 ",
    "hosp_name":"豁然心理治療所",
    "hosp_addr":"臺北市信義區松山路421號8樓之3",
    "online_available":"False",
    "mh_support_15_45":"False"
    }
  },
  {
    "type": "Feature",
    "geometry": {
       "type": "Point",
       "coordinates":  [ 121.5596253,25.0279665 ]
    },
    "properties": {
    "city":"台北市",
    "district":"信義區",
    "type":"心理諮商所 ",
    "hosp_name":"共渡心理諮商所",
    "hosp_addr":"臺北市信義區吳興街156巷33弄22號1樓",
    "online_available":"False",
    "mh_support_15_45":"True"
    }
  },
  {
    "type": "Feature",
    "geometry": {
       "type": "Point",
       "coordinates":  [ 121.5653136,25.0419415 ]
    },
    "properties": {
    "city":"台北市",
    "district":"信義區",
    "type":"心理諮商所",
    "hosp_name":"荳點心理諮商所",
    "hosp_addr":"臺北市信義區基隆路1段149號12樓之2",
    "online_available":"False",
    "mh_support_15_45":"False"
    }
  },
  {
    "type": "Feature",
    "geometry": {
       "type": "Point",
       "coordinates":  [ 121.5780041,25.038019 ]
    },
    "properties": {
    "city":"台北市",
    "district":"信義區",
    "type":"心理諮商所",
    "hosp_name":"清芷心理諮商所",
    "hosp_addr":"臺北市信義區松山路518之1號1樓",
    "online_available":"False",
    "mh_support_15_45":"True"
    }
  },
  {
    "type": "Feature",
    "geometry": {
       "type": "Point",
       "coordinates":  [ 121.593591,25.0519024 ]
    },
    "properties": {
    "city":"台北市",
    "district":"南港區",
    "type":"心理諮商所 ",
    "hosp_name":"蛹之生心理諮商所",
    "hosp_addr":"臺北市南港區昆陽街85號1樓",
    "online_available":"False",
    "mh_support_15_45":"False"
    }
  },
  {
    "type": "Feature",
    "geometry": {
       "type": "Point",
       "coordinates":  [ 121.6172089,25.0371939 ]
    },
    "properties": {
    "city":"台北市",
    "district":"南港區",
    "type":"心理諮商所",
    "hosp_name":"華昕藝心心理諮商所",
    "hosp_addr":"臺北市南港區研究院路1段99號2樓103室",
    "online_available":"False",
    "mh_support_15_45":"False"
    }
  },
  {
    "type": "Feature",
    "geometry": {
       "type": "Point",
       "coordinates":  [ 121.5032058,25.0435409 ]
    },
    "properties": {
    "city":"台北市",
    "district":"萬華區",
    "type":"心理諮商所 ",
    "hosp_name":"大隱心理諮商所",
    "hosp_addr":"臺北市萬華區成都路139號7樓",
    "online_available":"False",
    "mh_support_15_45":"False"
    }
  },
  {
    "type": "Feature",
    "geometry": {
       "type": "Point",
       "coordinates":  [ 121.5053511,25.0392329 ]
    },
    "properties": {
    "city":"台北市",
    "district":"萬華區",
    "type":"心理諮商所 ",
    "hosp_name":"哈米思心理諮商所",
    "hosp_addr":"臺北市萬華區柳州街6號4樓",
    "online_available":"False",
    "mh_support_15_45":"True"
    }
  },
  {
    "type": "Feature",
    "geometry": {
       "type": "Point",
       "coordinates":  [ 121.5064086,25.0458997 ]
    },
    "properties": {
    "city":"台北市",
    "district":"萬華區",
    "type":"心理諮商所",
    "hosp_name":"理馨西門?心理諮商所",
    "hosp_addr":"臺北市萬華區漢口街2段51號2樓",
    "online_available":"False",
    "mh_support_15_45":"False"
    }
  },
  {
    "type": "Feature",
    "geometry": {
       "type": "Point",
       "coordinates":  [ 121.5020474,25.1195499 ]
    },
    "properties": {
    "city":"台北市",
    "district":"北投區",
    "type":"機構附設心理諮商服務",
    "hosp_name":"財團法人基督教聖道兒少福利基金會附屬台北市私立聖道兒童之家",
    "hosp_addr":"臺北市北投區承德路7段388號1樓",
    "online_available":"False",
    "mh_support_15_45":"False"
    }
  },
  {
    "type": "Feature",
    "geometry": {
       "type": "Point",
       "coordinates":  [ 121.5331532,25.0465372 ]
    },
    "properties": {
    "city":"台北市",
    "district":"中山區",
    "type":"機構附設心理諮商服務",
    "hosp_name":"財團法人吾心文教基金會",
    "hosp_addr":"臺北市中山區松江路17號2樓",
    "online_available":"True",
    "mh_support_15_45":"False"
    }
  },
  {
    "type": "Feature",
    "geometry": {
       "type": "Point",
       "coordinates":  [ 121.52381,25.054848 ]
    },
    "properties": {
    "city":"台北市",
    "district":"中山區",
    "type":"機構附設心理諮商服務",
    "hosp_name":"財團法人罕見疾病基金會",
    "hosp_addr":"臺北市中山區長春路20號6樓",
    "online_available":"False",
    "mh_support_15_45":"False"
    }
  },
  {
    "type": "Feature",
    "geometry": {
       "type": "Point",
       "coordinates":  [ 121.5453195,25.0811653 ]
    },
    "properties": {
    "city":"台北市",
    "district":"中山區",
    "type":"機構附設心理諮商服務",
    "hosp_name":"財團法人張老師基金會台北分事務所",
    "hosp_addr":"臺北市中山區大直街20巷18號",
    "online_available":"True",
    "mh_support_15_45":"False"
    }
  },
  {
    "type": "Feature",
    "geometry": {
       "type": "Point",
       "coordinates":  [ 121.5390808,25.0521897 ]
    },
    "properties": {
    "city":"台北市",
    "district":"中山區",
    "type":"機構附設心理諮商服務",
    "hosp_name":"財團法人陽光社會福利基金會",
    "hosp_addr":"臺北市中山區南京東路3段91號3樓",
    "online_available":"False",
    "mh_support_15_45":"False"
    }
  },
  {
    "type": "Feature",
    "geometry": {
       "type": "Point",
       "coordinates":  [ 121.5686385,25.0502816 ]
    },
    "properties": {
    "city":"台北市",
    "district":"松山區",
    "type":"機構附設心理諮商服務",
    "hosp_name":"財團法人台北市失親兒福利基金會",
    "hosp_addr":"臺北市松山區寶清街18-3號",
    "online_available":"False",
    "mh_support_15_45":"False"
    }
  },
  {
    "type": "Feature",
    "geometry": {
       "type": "Point",
       "coordinates":  [ 121.5587717,25.0513356 ]
    },
    "properties": {
    "city":"台北市",
    "district":"松山區",
    "type":"機構附設心理諮商服務",
    "hosp_name":"財團法人台灣癌症基金會",
    "hosp_addr":"臺北市松山區南京東路五段16號5樓之2",
    "online_available":"False",
    "mh_support_15_45":"False"
    }
  },
  {
    "type": "Feature",
    "geometry": {
       "type": "Point",
       "coordinates":  [ 121.5301401,25.1245826 ]
    },
    "properties": {
    "city":"台北市",
    "district":"士林區",
    "type":"機構附設心理諮商服務",
    "hosp_name":"財團法人台北市私立體惠育幼院",
    "hosp_addr":"臺北市士林區中山北路七段141巷43號",
    "online_available":"False",
    "mh_support_15_45":"False"
    }
  },
  {
    "type": "Feature",
    "geometry": {
       "type": "Point",
       "coordinates":  [ 121.5267089,25.1094954 ]
    },
    "properties": {
    "city":"台北市",
    "district":"士林區",
    "type":"機構附設心理諮商服務",
    "hosp_name":"財團法人台北市國際社區服務文教基金會",
    "hosp_addr":"臺北市士林區中山北路六段290巷25號1樓",
    "online_available":"True",
    "mh_support_15_45":"False"
    }
  },
  {
    "type": "Feature",
    "geometry": {
       "type": "Point",
       "coordinates":  [ 121.5210445,25.080899 ]
    },
    "properties": {
    "city":"台北市",
    "district":"士林區",
    "type":"機構附設心理諮商服務",
    "hosp_name":"財團法人臺北市光智社會事業基金會",
    "hosp_addr":"臺北市士林區通河街137號B1樓",
    "online_available":"False",
    "mh_support_15_45":"False"
    }
  },
  {
    "type": "Feature",
    "geometry": {
       "type": "Point",
       "coordinates":  [ 121.5226127,25.0526041 ]
    },
    "properties": {
    "city":"台北市",
    "district":"中正區",
    "type":"機構附設心理諮商服務",
    "hosp_name":"財團法人天主教聖母聖心會懷仁全人發展中心",
    "hosp_addr":"臺北市中正區中山北路1段2號9樓950室",
    "online_available":"True",
    "mh_support_15_45":"False"
    }
  },
  {
    "type": "Feature",
    "geometry": {
       "type": "Point",
       "coordinates":  [ 121.5306889,25.0347263 ]
    },
    "properties": {
    "city":"台北市",
    "district":"中正區",
    "type":"機構附設心理諮商服務",
    "hosp_name":"財團法人台灣兒童暨家庭扶助基金會台北市南區分事務所",
    "hosp_addr":"臺北市中正區新生南路一段160巷17號1樓",
    "online_available":"False",
    "mh_support_15_45":"False"
    }
  },
  {
    "type": "Feature",
    "geometry": {
       "type": "Point",
       "coordinates":  [ 121.475307,25.1328975 ]
    },
    "properties": {
    "city":"台北市",
    "district":"北投區",
    "type":"機構附設心理諮商服務",
    "hosp_name":"財團法人臺北市基督教勵友中心",
    "hosp_addr":"臺北市北投區中央北路1段12號5樓",
    "online_available":"False",
    "mh_support_15_45":"False"
    }
  },
  {
    "type": "Feature",
    "geometry": {
       "type": "Point",
       "coordinates":  [ 121.5710995,25.0421453 ]
    },
    "properties": {
    "city":"台北市",
    "district":"信義區",
    "type":"機構附設心理諮商服務",
    "hosp_name":"財團法人中華文化社會福利事業基金會台北兒童福利中心",
    "hosp_addr":"臺北市信義區虎林街120巷270號",
    "online_available":"False",
    "mh_support_15_45":"False"
    }
  },
  {
    "type": "Feature",
    "geometry": {
       "type": "Point",
       "coordinates":  [ 121.4427991,24.9747451 ]
    },
    "properties": {
    "city":"台北市",
    "district":"信義區",
    "type":"機構附設心理諮商服務",
    "hosp_name":"財團法人赤子心教育基金會",
    "hosp_addr":"臺北市信義區和平東路3段391巷20弄27號1樓",
    "online_available":"False",
    "mh_support_15_45":"False"
    }
  },
  {
    "type": "Feature",
    "geometry": {
       "type": "Point",
       "coordinates":  [ 121.5367463,25.0415513 ]
    },
    "properties": {
    "city":"台北市",
    "district":"大安區",
    "type":"機構附設心理諮商服務",
    "hosp_name":"財團法人台北市任兆璋修女林美智老師教育基金會",
    "hosp_addr":"臺北市大安區忠孝東路3段100號5樓",
    "online_available":"True",
    "mh_support_15_45":"False"
    }
  },
  {
    "type": "Feature",
    "geometry": {
       "type": "Point",
       "coordinates":  [ 121.530017,25.019346 ]
    },
    "properties": {
    "city":"台北市",
    "district":"大安區",
    "type":"機構附設心理諮商服務",
    "hosp_name":"財團法人旭立文教基金會",
    "hosp_addr":"臺北市大安區羅斯福路3段245號8樓之1、2",
    "online_available":"True",
    "mh_support_15_45":"False"
    }
  },
  {
    "type": "Feature",
    "geometry": {
       "type": "Point",
       "coordinates":  [ 121.5229719,25.0267596 ]
    },
    "properties": {
    "city":"台北市",
    "district":"大安區",
    "type":"機構附設心理諮商服務",
    "hosp_name":"財團法人基督教宇宙光全人關懷機構",
    "hosp_addr":"臺北市大安區和平東路2段24號8F",
    "online_available":"True",
    "mh_support_15_45":"False"
    }
  },
  {
    "type": "Feature",
    "geometry": {
       "type": "Point",
       "coordinates":  [ 121.5238298,25.0341506 ]
    },
    "properties": {
    "city":"台北市",
    "district":"大安區",
    "type":"機構附設心理諮商服務",
    "hosp_name":"財團法人基督教臺灣信義會",
    "hosp_addr":"臺北市大安區杭州南路二段15號",
    "online_available":"False",
    "mh_support_15_45":"False"
    }
  },
  {
    "type": "Feature",
    "geometry": {
       "type": "Point",
       "coordinates":  [ 121.5204966,25.0294102 ]
    },
    "properties": {
    "city":"台北市",
    "district":"中正區",
    "type":"機構附設心理諮商服務",
    "hosp_name":"財團法人華人心理治療研究發展基金會",
    "hosp_addr":"臺北市中正區羅斯福路2段2號10F",
    "online_available":"True",
    "mh_support_15_45":"False"
    }
  },
  {
    "type": "Feature",
    "geometry": {
       "type": "Point",
       "coordinates":  [ 121.5231198,25.0265607 ]
    },
    "properties": {
    "city":"台北市",
    "district":"大安區",
    "type":"機構附設心理諮商服務",
    "hosp_name":"財團法人勵馨社會福利基金會",
    "hosp_addr":"臺北市大安區羅斯福路2段75號7F",
    "online_available":"True",
    "mh_support_15_45":"False"
    }
  },
  {
    "type": "Feature",
    "geometry": {
       "type": "Point",
       "coordinates":  [ 121.545438,24.9963342 ]
    },
    "properties": {
    "city":"台北市",
    "district":"文山區",
    "type":"機構附設心理諮商服務",
    "hosp_name":"財團法人忠義社會福利事業基金會",
    "hosp_addr":"臺北市文山區景興路85巷12號",
    "online_available":"False",
    "mh_support_15_45":"False"
    }
  },
  {
    "type": "Feature",
    "geometry": {
       "type": "Point",
       "coordinates":  [ 121.5215108,25.0884766 ]
    },
    "properties": {
    "city":"台北市",
    "district":"士林區",
    "type":"機構附設心理諮商服務",
    "hosp_name":"財團法人靖娟兒童文教基金會",
    "hosp_addr":"臺北市士林區承德路4段222號3之1",
    "online_available":"False",
    "mh_support_15_45":"False"
    }
  },
  {
    "type": "Feature",
    "geometry": {
       "type": "Point",
       "coordinates":  [ 121.5672655,24.9848271 ]
    },
    "properties": {
    "city":"台北市",
    "district":"文山區",
    "type":"機構附設心理諮商服務",
    "hosp_name":"財團法人基督教臺北市私立伯大尼兒少家園",
    "hosp_addr":"臺北市文山區保儀路129號",
    "online_available":"False",
    "mh_support_15_45":"False"
    }
  },
  {
    "type": "Feature",
    "geometry": {
       "type": "Point",
       "coordinates":  [ 121.5592058,25.0835753 ]
    },
    "properties": {
    "city":"台北市",
    "district":"中山區",
    "type":"機構附設心理諮商服務",
    "hosp_name":"財團法人台北市中國基督教靈糧世界佈道會士林靈糧堂",
    "hosp_addr":"臺北市中山區植福路170號6樓601室",
    "online_available":"False",
    "mh_support_15_45":"False"
    }
  },
  {
    "type": "Feature",
    "geometry": {
       "type": "Point",
       "coordinates":  [ 121.5830385,25.0385914 ]
    },
    "properties": {
    "city":"台北市",
    "district":"信義區",
    "type":"社區心理諮商服務",
    "hosp_name":"臺北聯合醫院廣慈信義門診部",
    "hosp_addr":"臺北市信義區大道路116號",
    "online_available":"False",
    "mh_support_15_45":"False"
    }
  },
  {
    "type": "Feature",
    "geometry": {
       "type": "Point",
       "coordinates":  [ 121.5765374,24.9876129 ]
    },
    "properties": {
    "city":"台北市",
    "district":"文山區",
    "type":"社區心理諮商服務",
    "hosp_name":"臺北市立聯合醫院政大門診部",
    "hosp_addr":"臺北市文山區指南路2段117號",
    "online_available":"False",
    "mh_support_15_45":"False"
    }
  },
  {
    "type": "Feature",
    "geometry": {
       "type": "Point",
       "coordinates":  [ 121.5160136,25.0304306 ]
    },
    "properties": {
    "city":"台北市",
    "district":"中正區",
    "type":"社區心理諮商服務",
    "hosp_name":"臺北市中正區健康服務中心",
    "hosp_addr":"臺北市中正區牯嶺街24號",
    "online_available":"False",
    "mh_support_15_45":"False"
    }
  },
  {
    "type": "Feature",
    "geometry": {
       "type": "Point",
       "coordinates":  [ 121.5336997,25.0643338 ]
    },
    "properties": {
    "city":"台北市",
    "district":"中山區",
    "type":"社區心理諮商服務",
    "hosp_name":"臺北市中山區健康服務中心",
    "hosp_addr":"臺北市中山區松江路367號",
    "online_available":"False",
    "mh_support_15_45":"False"
    }
  },
  {
    "type": "Feature",
    "geometry": {
       "type": "Point",
       "coordinates":  [ 121.544274,25.021577 ]
    },
    "properties": {
    "city":"台北市",
    "district":"大安區",
    "type":"社區心理諮商服務",
    "hosp_name":"臺北市大安區健康服務中心",
    "hosp_addr":"臺北市大安區辛亥路3段15號",
    "online_available":"False",
    "mh_support_15_45":"False"
    }
  },
  {
    "type": "Feature",
    "geometry": {
       "type": "Point",
       "coordinates":  [ 121.5772248,25.0497691 ]
    },
    "properties": {
    "city":"台北市",
    "district":"松山區",
    "type":"社區心理諮商服務",
    "hosp_name":"臺北市松山區健康服務中心",
    "hosp_addr":"臺北市松山區八德路4段692號",
    "online_available":"False",
    "mh_support_15_45":"False"
    }
  },
  {
    "type": "Feature",
    "geometry": {
       "type": "Point",
       "coordinates":  [ 121.6069541,25.0530895 ]
    },
    "properties": {
    "city":"台北市",
    "district":"南港區",
    "type":"社區心理諮商服務",
    "hosp_name":"臺北市南港區健康服務中心",
    "hosp_addr":"臺北市南港區南港路1段360號",
    "online_available":"False",
    "mh_support_15_45":"False"
    }
  },
  {
    "type": "Feature",
    "geometry": {
       "type": "Point",
       "coordinates":  [ 121.5162533,25.0656996 ]
    },
    "properties": {
    "city":"台北市",
    "district":"大同區",
    "type":"社區心理諮商服務",
    "hosp_name":"臺北市大同區健康服務中心",
    "hosp_addr":"臺北市大同區昌吉街52號",
    "online_available":"False",
    "mh_support_15_45":"False"
    }
  },
  {
    "type": "Feature",
    "geometry": {
       "type": "Point",
       "coordinates":  [ 121.5889951,25.0693633 ]
    },
    "properties": {
    "city":"台北市",
    "district":"內湖區",
    "type":"社區心理諮商服務",
    "hosp_name":"臺北市內湖區健康服務中心",
    "hosp_addr":"臺北市內湖區民權東路6段99號",
    "online_available":"False",
    "mh_support_15_45":"False"
    }
  },
  {
    "type": "Feature",
    "geometry": {
       "type": "Point",
       "coordinates":  [ 121.5197824,25.0928085 ]
    },
    "properties": {
    "city":"台北市",
    "district":"士林區",
    "type":"社區心理諮商服務",
    "hosp_name":"台北市士林區健康服務中心",
    "hosp_addr":"臺北市士林區中正路439號",
    "online_available":"False",
    "mh_support_15_45":"False"
    }
  },
  {
    "type": "Feature",
    "geometry": {
       "type": "Point",
       "coordinates":  [ 121.4976402,25.0232014 ]
    },
    "properties": {
    "city":"台北市",
    "district":"萬華區",
    "type":"社區心理諮商服務",
    "hosp_name":"臺北市萬華區健康服務中心",
    "hosp_addr":"臺北市萬華區東園街152號",
    "online_available":"False",
    "mh_support_15_45":"False"
    }
  },
  {
    "type": "Feature",
    "geometry": {
       "type": "Point",
       "coordinates":  [ 121.5026592,25.1328136 ]
    },
    "properties": {
    "city":"台北市",
    "district":"北投區",
    "type":"社區心理諮商服務",
    "hosp_name":"臺北市立聯合醫院北投門診部",
    "hosp_addr":"臺北市北投區新市街30號5樓",
    "online_available":"False",
    "mh_support_15_45":"False"
    }
  },
  {
    "type": "Feature",
    "geometry": {
       "type": "Point",
       "coordinates":  [ 121.5198716,25.0421407 ]
    },
    "properties": {
    "city":"台北市",
    "district":"中正區",
    "type":"社區心理諮商服務",
    "hosp_name":"臺北市中正區社區心理衛生中心",
    "hosp_addr":"臺北市中正區金山南路1段5號",
    "online_available":"False",
    "mh_support_15_45":"False"
    }
  },
  {
    "type": "Feature",
    "geometry": {
       "type": "Point",
       "coordinates":  [ 121.5278262,25.0355941 ]
    },
    "properties": {
    "city":"台北市",
    "district":"中正區",
    "type":"精神科診所",
    "hosp_name":"永康身心診所",
    "hosp_addr":"臺北市中正區金山南路一段127號",
    "online_available":"False",
    "mh_support_15_45":"False"
    }
  },
  {
    "type": "Feature",
    "geometry": {
       "type": "Point",
       "coordinates":  [ 121.5298767,25.0187904 ]
    },
    "properties": {
    "city":"台北市",
    "district":"中正區",
    "type":"精神科診所",
    "hosp_name":"平安身心精神科診所",
    "hosp_addr":"臺北市中正區羅斯福路三段218號",
    "online_available":"False",
    "mh_support_15_45":"False"
    }
  },
  {
    "type": "Feature",
    "geometry": {
       "type": "Point",
       "coordinates":  [ 121.5195612,25.0283617 ]
    },
    "properties": {
    "city":"台北市",
    "district":"中正區",
    "type":"精神科診所",
    "hosp_name":"蘭心診所",
    "hosp_addr":"臺北市中正區南昌路二段11號、15號",
    "online_available":"False",
    "mh_support_15_45":"False"
    }
  },
  {
    "type": "Feature",
    "geometry": {
       "type": "Point",
       "coordinates":  [ 121.5243359,25.0240214 ]
    },
    "properties": {
    "city":"台北市",
    "district":"中正區",
    "type":"精神科診所",
    "hosp_name":"大心古亭診所",
    "hosp_addr":"臺北市中正區南昌路二段206號5樓之1",
    "online_available":"True",
    "mh_support_15_45":"True"
    }
  },
  {
    "type": "Feature",
    "geometry": {
       "type": "Point",
       "coordinates":  [ 121.5278646,25.0360264 ]
    },
    "properties": {
    "city":"台北市",
    "district":"中正區",
    "type":"精神科診所",
    "hosp_name":"孫睿亮診所",
    "hosp_addr":"臺北市中正區金山南路一段121號",
    "online_available":"False",
    "mh_support_15_45":"False"
    }
  },
  {
    "type": "Feature",
    "geometry": {
       "type": "Point",
       "coordinates":  [ 121.5432036,25.0251305 ]
    },
    "properties": {
    "city":"台北市",
    "district":"大安區",
    "type":"精神科診所",
    "hosp_name":"捷思身心醫學診所",
    "hosp_addr":"臺北市大安區復興南路2段236號12樓之3",
    "online_available":"True",
    "mh_support_15_45":"True"
    }
  },
  {
    "type": "Feature",
    "geometry": {
       "type": "Point",
       "coordinates":  [ 121.5110467,25.0429887 ]
    },
    "properties": {
    "city":"台北市",
    "district":"中正區",
    "type":"精神科診所",
    "hosp_name":"醫療財團法人徐元智先生醫藥基金會遠東聯合診所",
    "hosp_addr":"臺北市中正區永綏街8至14號",
    "online_available":"False",
    "mh_support_15_45":"False"
    }
  },
  {
    "type": "Feature",
    "geometry": {
       "type": "Point",
       "coordinates":  [ 121.5174404,25.0566598 ]
    },
    "properties": {
    "city":"台北市",
    "district":"大同區",
    "type":"精神科診所",
    "hosp_name":"夏凱納生活診所",
    "hosp_addr":"臺北市大同區五原路15號、19號2樓",
    "online_available":"True",
    "mh_support_15_45":"False"
    }
  },
  {
    "type": "Feature",
    "geometry": {
       "type": "Point",
       "coordinates":  [ 121.5113064,25.0627243 ]
    },
    "properties": {
    "city":"台北市",
    "district":"大同區",
    "type":"精神科診所",
    "hosp_name":"中山抱抱心身醫學診所",
    "hosp_addr":"臺北市大同區承德路1段105號5樓",
    "online_available":"False",
    "mh_support_15_45":"False"
    }
  },
  {
    "type": "Feature",
    "geometry": {
       "type": "Point",
       "coordinates":  [ 121.522613,25.0574884 ]
    },
    "properties": {
    "city":"台北市",
    "district":"中山區",
    "type":"精神科診所",
    "hosp_name":"澄心診所",
    "hosp_addr":"臺北市中山區中山北路二段82號2樓",
    "online_available":"False",
    "mh_support_15_45":"False"
    }
  },
  {
    "type": "Feature",
    "geometry": {
       "type": "Point",
       "coordinates":  [ 121.5438369,25.0592952 ]
    },
    "properties": {
    "city":"台北市",
    "district":"中山區",
    "type":"精神科診所",
    "hosp_name":"振芝沃本診所",
    "hosp_addr":"臺北市中山區復興北路290號2樓之1",
    "online_available":"False",
    "mh_support_15_45":"False"
    }
  },
  {
    "type": "Feature",
    "geometry": {
       "type": "Point",
       "coordinates":  [ 121.5486335,25.0820139 ]
    },
    "properties": {
    "city":"台北市",
    "district":"中山區",
    "type":"精神科診所",
    "hosp_name":"進安身心診所",
    "hosp_addr":"臺北市中山區北安路593號、593號地下",
    "online_available":"False",
    "mh_support_15_45":"False"
    }
  },
  {
    "type": "Feature",
    "geometry": {
       "type": "Point",
       "coordinates":  [ 121.521374,25.0526043 ]
    },
    "properties": {
    "city":"台北市",
    "district":"中山區",
    "type":"精神科診所",
    "hosp_name":"黃雅芬兒童心智診所",
    "hosp_addr":"臺北市中山區南京西路5之1號12樓之1",
    "online_available":"True",
    "mh_support_15_45":"False"
    }
  },
  {
    "type": "Feature",
    "geometry": {
       "type": "Point",
       "coordinates":  [ 121.543881,25.0587951 ]
    },
    "properties": {
    "city":"台北市",
    "district":"中山區",
    "type":"精神科診所",
    "hosp_name":"振芝心身醫學診所",
    "hosp_addr":"臺北市中山區復興北路282號2樓",
    "online_available":"True",
    "mh_support_15_45":"True"
    }
  },
  {
    "type": "Feature",
    "geometry": {
       "type": "Point",
       "coordinates":  [ 121.5438118,25.0513726 ]
    },
    "properties": {
    "city":"台北市",
    "district":"中山區",
    "type":"精神科診所",
    "hosp_name":"心禾診所",
    "hosp_addr":"臺北市中山區復興北路92號11樓、11樓之1",
    "online_available":"True",
    "mh_support_15_45":"False"
    }
  },
  {
    "type": "Feature",
    "geometry": {
       "type": "Point",
       "coordinates":  [ 121.5336619,25.0518478 ]
    },
    "properties": {
    "city":"台北市",
    "district":"中山區",
    "type":"精神科診所",
    "hosp_name":"鈺璽診所",
    "hosp_addr":"臺北市中山區南京東路二段132號4樓",
    "online_available":"False",
    "mh_support_15_45":"False"
    }
  },
  {
    "type": "Feature",
    "geometry": {
       "type": "Point",
       "coordinates":  [ 121.5257939,25.0644759 ]
    },
    "properties": {
    "city":"台北市",
    "district":"中山區",
    "type":"精神科診所",
    "hosp_name":"慶生診所",
    "hosp_addr":"臺北市中山區林森北路561號2樓之7及之8",
    "online_available":"False",
    "mh_support_15_45":"False"
    }
  },
  {
    "type": "Feature",
    "geometry": {
       "type": "Point",
       "coordinates":  [ 121.5235146,25.0539081 ]
    },
    "properties": {
    "city":"台北市",
    "district":"中山區",
    "type":"精神科診所",
    "hosp_name":"微煦心靈診所",
    "hosp_addr":"臺北市中山區中山北路二段39巷6號2樓之1",
    "online_available":"False",
    "mh_support_15_45":"False"
    }
  },
  {
    "type": "Feature",
    "geometry": {
       "type": "Point",
       "coordinates":  [ 121.5229957,25.0497707 ]
    },
    "properties": {
    "city":"台北市",
    "district":"中山區",
    "type":"精神科診所",
    "hosp_name":"黃偉俐診所",
    "hosp_addr":"臺北市中山區天津街37號2樓",
    "online_available":"False",
    "mh_support_15_45":"False"
    }
  },
  {
    "type": "Feature",
    "geometry": {
       "type": "Point",
       "coordinates":  [ 121.5566907,25.0482293 ]
    },
    "properties": {
    "city":"台北市",
    "district":"松山區",
    "type":"精神科診所",
    "hosp_name":"樂康診所",
    "hosp_addr":"臺北市松山區八德路三段 213號1樓",
    "online_available":"False",
    "mh_support_15_45":"False"
    }
  },
  {
    "type": "Feature",
    "geometry": {
       "type": "Point",
       "coordinates":  [ 121.5574266,25.0518277 ]
    },
    "properties": {
    "city":"台北市",
    "district":"松山區",
    "type":"精神科診所",
    "hosp_name":"双悅診所",
    "hosp_addr":"臺北市松山區南京東路5段163之1號(1、2樓)",
    "online_available":"False",
    "mh_support_15_45":"False"
    }
  },
  {
    "type": "Feature",
    "geometry": {
       "type": "Point",
       "coordinates":  [ 121.553404,25.046802 ]
    },
    "properties": {
    "city":"台北市",
    "district":"松山區",
    "type":"精神科診所",
    "hosp_name":"邱楠超診所",
    "hosp_addr":"臺北市松山區延吉街20號1樓",
    "online_available":"False",
    "mh_support_15_45":"False"
    }
  },
  {
    "type": "Feature",
    "geometry": {
       "type": "Point",
       "coordinates":  [ 121.5638256,25.0565326 ]
    },
    "properties": {
    "city":"台北市",
    "district":"松山區",
    "type":"精神科診所",
    "hosp_name":"李政洋身心診所",
    "hosp_addr":"臺北市松山區三民路84號",
    "online_available":"True",
    "mh_support_15_45":"False"
    }
  },
  {
    "type": "Feature",
    "geometry": {
       "type": "Point",
       "coordinates":  [ 121.5433783,25.0249441 ]
    },
    "properties": {
    "city":"台北市",
    "district":"大安區",
    "type":"精神科診所",
    "hosp_name":"向陽身心診所",
    "hosp_addr":"臺北市大安區忠孝東路4段218之2號2樓",
    "online_available":"False",
    "mh_support_15_45":"False"
    }
  },
  {
    "type": "Feature",
    "geometry": {
       "type": "Point",
       "coordinates":  [ 121.5229719,25.0267596 ]
    },
    "properties": {
    "city":"台北市",
    "district":"大安區",
    "type":"精神科診所",
    "hosp_name":"大安身心診所",
    "hosp_addr":"臺北市大安區和平東路2段18之9號",
    "online_available":"False",
    "mh_support_15_45":"False"
    }
  },
  {
    "type": "Feature",
    "geometry": {
       "type": "Point",
       "coordinates":  [ 121.5334554,25.0420032 ]
    },
    "properties": {
    "city":"台北市",
    "district":"大安區",
    "type":"精神科診所",
    "hosp_name":"大心診所",
    "hosp_addr":"臺北市大安區忠孝東路4段205巷7弄13號2樓、153號6樓",
    "online_available":"True",
    "mh_support_15_45":"False"
    }
  },
  {
    "type": "Feature",
    "geometry": {
       "type": "Point",
       "coordinates":  [ 121.5307549,25.0334493 ]
    },
    "properties": {
    "city":"台北市",
    "district":"大安區",
    "type":"精神科診所",
    "hosp_name":"馨思身心精神科診所",
    "hosp_addr":"臺北市大安區信義路2段208號7樓之1",
    "online_available":"True",
    "mh_support_15_45":"False"
    }
  },
  {
    "type": "Feature",
    "geometry": {
       "type": "Point",
       "coordinates":  [ 121.5543743,25.0422864 ]
    },
    "properties": {
    "city":"台北市",
    "district":"大安區",
    "type":"精神科診所",
    "hosp_name":"晴天身心診所",
    "hosp_addr":"臺北市大安區延吉街135之3號2樓",
    "online_available":"False",
    "mh_support_15_45":"False"
    }
  },
  {
    "type": "Feature",
    "geometry": {
       "type": "Point",
       "coordinates":  [ 121.5548249,25.0406094 ]
    },
    "properties": {
    "city":"台北市",
    "district":"大安區",
    "type":"精神科診所",
    "hosp_name":"自體心理診所",
    "hosp_addr":"臺北市大安區延吉街153之9號3樓",
    "online_available":"False",
    "mh_support_15_45":"False"
    }
  },
  {
    "type": "Feature",
    "geometry": {
       "type": "Point",
       "coordinates":  [ 121.5431996,25.0274695 ]
    },
    "properties": {
    "city":"台北市",
    "district":"大安區",
    "type":"精神科診所",
    "hosp_name":"光慧診所",
    "hosp_addr":"臺北市大安區復興南路二段176號",
    "online_available":"False",
    "mh_support_15_45":"False"
    }
  },
  {
    "type": "Feature",
    "geometry": {
       "type": "Point",
       "coordinates":  [ 121.5311466,25.0202207 ]
    },
    "properties": {
    "city":"台北市",
    "district":"大安區",
    "type":"精神科診所",
    "hosp_name":"主愛心靈診所",
    "hosp_addr":"臺北市大安區羅斯福路3段269巷39號1樓",
    "online_available":"False",
    "mh_support_15_45":"False"
    }
  },
  {
    "type": "Feature",
    "geometry": {
       "type": "Point",
       "coordinates":  [ 121.5432824,25.0330026 ]
    },
    "properties": {
    "city":"台北市",
    "district":"大安區",
    "type":"精神科診所",
    "hosp_name":"宇寧身心診所",
    "hosp_addr":"臺北市大安區復興南路2段6號3樓",
    "online_available":"False",
    "mh_support_15_45":"False"
    }
  },
  {
    "type": "Feature",
    "geometry": {
       "type": "Point",
       "coordinates":  [ 121.5433135,25.0331528 ]
    },
    "properties": {
    "city":"台北市",
    "district":"大安區",
    "type":"精神科診所",
    "hosp_name":"昱捷診所",
    "hosp_addr":"臺北市大安區信義路3段202號9樓之2、9樓之3",
    "online_available":"False",
    "mh_support_15_45":"False"
    }
  },
  {
    "type": "Feature",
    "geometry": {
       "type": "Point",
       "coordinates":  [ 121.544403,25.041844 ]
    },
    "properties": {
    "city":"台北市",
    "district":"大安區",
    "type":"精神科診所",
    "hosp_name":"光能身心診所",
    "hosp_addr":"臺北市大安區忠孝東路四段15號8樓",
    "online_available":"False",
    "mh_support_15_45":"False"
    }
  },
  {
    "type": "Feature",
    "geometry": {
       "type": "Point",
       "coordinates":  [ 121.4252204,25.0005655 ]
    },
    "properties": {
    "city":"台北市",
    "district":"大安區",
    "type":"精神科診所",
    "hosp_name":"林青穀家庭醫學科診所",
    "hosp_addr":"臺北市大安區大安路1段2之1號",
    "online_available":"False",
    "mh_support_15_45":"False"
    }
  },
  {
    "type": "Feature",
    "geometry": {
       "type": "Point",
       "coordinates":  [ 121.544113,25.034036 ]
    },
    "properties": {
    "city":"台北市",
    "district":"大安區",
    "type":"精神科診所",
    "hosp_name":"杏語心靈診所",
    "hosp_addr":"臺北市大安區復興南路1段200號11樓",
    "online_available":"False",
    "mh_support_15_45":"False"
    }
  },
  {
    "type": "Feature",
    "geometry": {
       "type": "Point",
       "coordinates":  [ 121.5372485,25.0251834 ]
    },
    "properties": {
    "city":"台北市",
    "district":"大安區",
    "type":"精神科診所",
    "hosp_name":"尹書田醫療財團法人書田泌尿科眼科診所",
    "hosp_addr":"臺北市大安區建國南路2段276號1樓、2樓、4樓、4樓之1、B1、B1之1、278號1樓",
    "online_available":"False",
    "mh_support_15_45":"False"
    }
  },
  {
    "type": "Feature",
    "geometry": {
       "type": "Point",
       "coordinates":  [ 121.5099468,25.0244101 ]
    },
    "properties": {
    "city":"台北市",
    "district":"萬華區",
    "type":"精神科診所",
    "hosp_name":"福全身心科診所",
    "hosp_addr":"臺北市萬華區中華路二段600號",
    "online_available":"False",
    "mh_support_15_45":"False"
    }
  },
  {
    "type": "Feature",
    "geometry": {
       "type": "Point",
       "coordinates":  [ 121.4988813,25.0351499 ]
    },
    "properties": {
    "city":"台北市",
    "district":"萬華區",
    "type":"精神科診所",
    "hosp_name":"萬華身心精神科診所",
    "hosp_addr":"臺北市萬華區和平西路3段142號",
    "online_available":"False",
    "mh_support_15_45":"False"
    }
  },
  {
    "type": "Feature",
    "geometry": {
       "type": "Point",
       "coordinates":  [ 121.5652968,25.0406521 ]
    },
    "properties": {
    "city":"台北市",
    "district":"信義區",
    "type":"精神科診所",
    "hosp_name":"新佑泉診所",
    "hosp_addr":"臺北市信義區忠孝東路5段508之4號",
    "online_available":"False",
    "mh_support_15_45":"False"
    }
  },
  {
    "type": "Feature",
    "geometry": {
       "type": "Point",
       "coordinates":  [ 121.5578478,25.036249 ]
    },
    "properties": {
    "city":"台北市",
    "district":"信義區",
    "type":"精神科診所",
    "hosp_name":"伯特利身心診所",
    "hosp_addr":"臺北市信義區光復南路421號2樓",
    "online_available":"True",
    "mh_support_15_45":"True"
    }
  },
  {
    "type": "Feature",
    "geometry": {
       "type": "Point",
       "coordinates":  [ 121.5749793,25.0377232 ]
    },
    "properties": {
    "city":"台北市",
    "district":"信義區",
    "type":"精神科診所",
    "hosp_name":"松德精神科診所",
    "hosp_addr":"臺北市信義區松德路108號",
    "online_available":"False",
    "mh_support_15_45":"True"
    }
  },
  {
    "type": "Feature",
    "geometry": {
       "type": "Point",
       "coordinates":  [ 121.5661318,25.0271906 ]
    },
    "properties": {
    "city":"台北市",
    "district":"信義區",
    "type":"精神科診所",
    "hosp_name":"信義身心精神科診所",
    "hosp_addr":"臺北市信義區莊敬路412號",
    "online_available":"False",
    "mh_support_15_45":"False"
    }
  },
  {
    "type": "Feature",
    "geometry": {
       "type": "Point",
       "coordinates":  [ 121.5727125,25.0407682 ]
    },
    "properties": {
    "city":"台北市",
    "district":"信義區",
    "type":"精神科診所",
    "hosp_name":"聿康診所",
    "hosp_addr":"臺北市信義區忠孝東路五段250號2樓",
    "online_available":"False",
    "mh_support_15_45":"False"
    }
  },
  {
    "type": "Feature",
    "geometry": {
       "type": "Point",
       "coordinates":  [ 121.5256815,25.1104268 ]
    },
    "properties": {
    "city":"台北市",
    "district":"士林區",
    "type":"精神科診所",
    "hosp_name":"天晴診所",
    "hosp_addr":"臺北市士林區中山北路六段292號、292號2樓",
    "online_available":"False",
    "mh_support_15_45":"False"
    }
  },
  {
    "type": "Feature",
    "geometry": {
       "type": "Point",
       "coordinates":  [ 121.5211789,25.1040822 ]
    },
    "properties": {
    "city":"台北市",
    "district":"士林區",
    "type":"精神科診所",
    "hosp_name":"天母康健身心診所",
    "hosp_addr":"臺北市士林區德行西路100號",
    "online_available":"False",
    "mh_support_15_45":"False"
    }
  },
  {
    "type": "Feature",
    "geometry": {
       "type": "Point",
       "coordinates":  [ 121.5229225,25.1025811 ]
    },
    "properties": {
    "city":"台北市",
    "district":"士林區",
    "type":"精神科診所",
    "hosp_name":"自由想心理診所",
    "hosp_addr":"臺北市士林區福華路122號2樓",
    "online_available":"False",
    "mh_support_15_45":"True"
    }
  },
  {
    "type": "Feature",
    "geometry": {
       "type": "Point",
       "coordinates":  [ 121.5108401,25.0807137 ]
    },
    "properties": {
    "city":"台北市",
    "district":"士林區",
    "type":"精神科診所",
    "hosp_name":"社子安心診所",
    "hosp_addr":"臺北市士林區延平北路五段76號",
    "online_available":"False",
    "mh_support_15_45":"False"
    }
  },
  {
    "type": "Feature",
    "geometry": {
       "type": "Point",
       "coordinates":  [ 121.5110156,25.1135643 ]
    },
    "properties": {
    "city":"台北市",
    "district":"北投區",
    "type":"精神科診所",
    "hosp_name":"石牌鄭身心醫學診所",
    "hosp_addr":"臺北市北投區石牌路一段69號(實際使用:1、2樓)",
    "online_available":"True",
    "mh_support_15_45":"False"
    }
  },
  {
    "type": "Feature",
    "geometry": {
       "type": "Point",
       "coordinates":  [ 121.5013711,25.128752 ]
    },
    "properties": {
    "city":"台北市",
    "district":"北投區",
    "type":"精神科診所",
    "hosp_name":"奇岩身心診所",
    "hosp_addr":"臺北市北投區中央南路一段191、193號",
    "online_available":"False",
    "mh_support_15_45":"False"
    }
  },
  {
    "type": "Feature",
    "geometry": {
       "type": "Point",
       "coordinates":  [ 121.4995268,25.1315926 ]
    },
    "properties": {
    "city":"台北市",
    "district":"北投區",
    "type":"精神科診所",
    "hosp_name":"北辰身心醫學診所",
    "hosp_addr":"臺北市北投區光明路2巷9之3號、9之3號2樓",
    "online_available":"False",
    "mh_support_15_45":"False"
    }
  },
  {
    "type": "Feature",
    "geometry": {
       "type": "Point",
       "coordinates":  [ 121.5900214,25.079589 ]
    },
    "properties": {
    "city":"台北市",
    "district":"內湖區",
    "type":"精神科診所",
    "hosp_name":"夏一新身心精神科診所",
    "hosp_addr":"臺北市內湖區成功路三段143號4樓",
    "online_available":"False",
    "mh_support_15_45":"True"
    }
  },
  {
    "type": "Feature",
    "geometry": {
       "type": "Point",
       "coordinates":  [ 121.5926975,25.0692749 ]
    },
    "properties": {
    "city":"台北市",
    "district":"內湖區",
    "type":"精神科診所",
    "hosp_name":"曜暘診所",
    "hosp_addr":"臺北市內湖區民權東路六段123巷8號",
    "online_available":"False",
    "mh_support_15_45":"False"
    }
  },
  {
    "type": "Feature",
    "geometry": {
       "type": "Point",
       "coordinates":  [ 121.5683655,25.0823089 ]
    },
    "properties": {
    "city":"台北市",
    "district":"內湖區",
    "type":"精神科診所",
    "hosp_name":"內湖身心精神科診所",
    "hosp_addr":"臺北市內湖區內湖路1段439號1樓",
    "online_available":"False",
    "mh_support_15_45":"False"
    }
  },
  {
    "type": "Feature",
    "geometry": {
       "type": "Point",
       "coordinates":  [ 121.6126211,25.0686772 ]
    },
    "properties": {
    "city":"台北市",
    "district":"內湖區",
    "type":"精神科診所",
    "hosp_name":"林威廷身心精神科診所",
    "hosp_addr":"臺北市內湖區東湖路10號",
    "online_available":"False",
    "mh_support_15_45":"False"
    }
  },
  {
    "type": "Feature",
    "geometry": {
       "type": "Point",
       "coordinates":  [ 121.5754083,25.0778823 ]
    },
    "properties": {
    "city":"台北市",
    "district":"內湖區",
    "type":"精神科診所",
    "hosp_name":"國泰醫療財團法人內湖國泰診所",
    "hosp_addr":"臺北市內湖區瑞光路337號(1、2、3、4樓)",
    "online_available":"False",
    "mh_support_15_45":"False"
    }
  },
  {
    "type": "Feature",
    "geometry": {
       "type": "Point",
       "coordinates":  [ 121.6047833,25.054708 ]
    },
    "properties": {
    "city":"台北市",
    "district":"南港區",
    "type":"精神科診所",
    "hosp_name":"開馨診所",
    "hosp_addr":"臺北市南港區南港路二段38巷6之1號",
    "online_available":"False",
    "mh_support_15_45":"False"
    }
  },
  {
    "type": "Feature",
    "geometry": {
       "type": "Point",
       "coordinates":  [ 121.5388512,25.0017739 ]
    },
    "properties": {
    "city":"台北市",
    "district":"文山區",
    "type":"精神科診所",
    "hosp_name":"和沛身心醫學診所",
    "hosp_addr":"臺北市文山區羅斯福路五段232號",
    "online_available":"False",
    "mh_support_15_45":"False"
    }
  },
  {
    "type": "Feature",
    "geometry": {
       "type": "Point",
       "coordinates":  [ 121.5548829,25.0015848 ]
    },
    "properties": {
    "city":"台北市",
    "district":"文山區",
    "type":"精神科診所",
    "hosp_name":"木柵身心診所",
    "hosp_addr":"臺北市文山區辛亥路四段246號",
    "online_available":"False",
    "mh_support_15_45":"False"
    }
  },
  {
    "type": "Feature",
    "geometry": {
       "type": "Point",
       "coordinates":  [ 121.5495463,25.0334604 ]
    },
    "properties": {
    "city":"台北市",
    "district":"大安區",
    "type":"精神科診所",
    "hosp_name":"交感身心診所",
    "hosp_addr":"臺北市大安區信義路4段143號4樓",
    "online_available":"False",
    "mh_support_15_45":"False"
    }
  },
  {
    "type": "Feature",
    "geometry": {
       "type": "Point",
       "coordinates":  [ 121.556627,24.999675 ]
    },
    "properties": {
    "city":"台北市",
    "district":"文山區",
    "type":"精神科診所",
    "hosp_name":"方舟身心診所",
    "hosp_addr":"臺北市文山區興隆路3段84號2樓",
    "online_available":"False",
    "mh_support_15_45":"False"
    }
  },
  {
    "type": "Feature",
    "geometry": {
       "type": "Point",
       "coordinates":  [ 121.5407269,24.9965879 ]
    },
    "properties": {
    "city":"台北市",
    "district":"文山區",
    "type":"精神科診所",
    "hosp_name":"誠心身心醫學診所",
    "hosp_addr":"臺北市文山區羅斯福路6段138號1樓",
    "online_available":"False",
    "mh_support_15_45":"False"
    }
  },
  {
    "type": "Feature",
    "geometry": {
       "type": "Point",
       "coordinates":  [ 121.5225107,25.0836545 ]
    },
    "properties": {
    "city":"台北市",
    "district":"士林區",
    "type":"精神科診所",
    "hosp_name":"心築身心診所",
    "hosp_addr":"臺北市士林區劍潭路28號1樓、30號1樓",
    "online_available":"False",
    "mh_support_15_45":"False"
    }
  },
  {
    "type": "Feature",
    "geometry": {
       "type": "Point",
       "coordinates":  [ 121.5250071,25.0940498 ]
    },
    "properties": {
    "city":"台北市",
    "district":"士林區",
    "type":"精神科診所",
    "hosp_name":"士林身心醫學診所",
    "hosp_addr":"臺北市士林區文林路410號(1、2樓)",
    "online_available":"False",
    "mh_support_15_45":"False"
    }
  },
  {
    "type": "Feature",
    "geometry": {
       "type": "Point",
       "coordinates":  [ 121.543737,25.0502336 ]
    },
    "properties": {
    "city":"台北市",
    "district":"中山區",
    "type":"精神科診所",
    "hosp_name":"得心身醫學台北總診所",
    "hosp_addr":"臺北市中山區復興北路60號3樓之2",
    "online_available":"False",
    "mh_support_15_45":"True"
    }
  },
  {
    "type": "Feature",
    "geometry": {
       "type": "Point",
       "coordinates":  [ 121.5332197,25.02644 ]
    },
    "properties": {
    "city":"台北市",
    "district":"大安區",
    "type":"精神科診所",
    "hosp_name":"伯特利敦南身心診所",
    "hosp_addr":"臺北市大安區和平東路3段1巷51號2樓",
    "online_available":"False",
    "mh_support_15_45":"False"
    }
  },
  {
    "type": "Feature",
    "geometry": {
       "type": "Point",
       "coordinates":  [ 121.5439756,25.0597973 ]
    },
    "properties": {
    "city":"台北市",
    "district":"中山區",
    "type":"精神科診所",
    "hosp_name":"新田身心診所",
    "hosp_addr":"臺北市中山區復興北路344號2樓",
    "online_available":"False",
    "mh_support_15_45":"False"
    }
  },
  {
    "type": "Feature",
    "geometry": {
       "type": "Point",
       "coordinates":  [ 121.5408178,25.0585555 ]
    },
    "properties": {
    "city":"台北市",
    "district":"中山區",
    "type":"精神科診所",
    "hosp_name":"偉俐民生診所",
    "hosp_addr":"臺北市中山區龍江路245號1樓",
    "online_available":"False",
    "mh_support_15_45":"False"
    }
  },
  {
    "type": "Feature",
    "geometry": {
       "type": "Point",
       "coordinates":  [ 121.5184702,25.0725415 ]
    },
    "properties": {
    "city":"台北市",
    "district":"大同區",
    "type":"精神科診所",
    "hosp_name":"牧人所身心醫學診所",
    "hosp_addr":"臺北市大同區承德路3段232號1樓",
    "online_available":"False",
    "mh_support_15_45":"False"
    }
  },
  {
    "type": "Feature",
    "geometry": {
       "type": "Point",
       "coordinates":  [ 121.5310689,25.1088825 ]
    },
    "properties": {
    "city":"台北市",
    "district":"士林區",
    "type":"精神科診所",
    "hosp_name":"張國榮身心診所",
    "hosp_addr":"臺北市士林區德行東路179號1樓",
    "online_available":"False",
    "mh_support_15_45":"False"
    }
  },
  {
    "type": "Feature",
    "geometry": {
       "type": "Point",
       "coordinates":  [ 121.5815302,25.0783305 ]
    },
    "properties": {
    "city":"台北市",
    "district":"內湖區",
    "type":"精神科診所",
    "hosp_name":"抱抱心身醫學診所",
    "hosp_addr":"臺北市內湖區文德路70號1樓及72號1樓",
    "online_available":"False",
    "mh_support_15_45":"False"
    }
  },
  {
    "type": "Feature",
    "geometry": {
       "type": "Point",
       "coordinates":  [ 121.52235,25.0275632 ]
    },
    "properties": {
    "city":"台北市",
    "district":"大安區",
    "type":"精神科診所",
    "hosp_name":"馨思診所",
    "hosp_addr":"臺北市大安區羅斯福路2段41號7樓之1",
    "online_available":"False",
    "mh_support_15_45":"False"
    }
  },
  {
    "type": "Feature",
    "geometry": {
       "type": "Point",
       "coordinates":  [ 121.5116131,25.0426936 ]
    },
    "properties": {
    "city":"台北市",
    "district":"中正區",
    "type":"精神科診所",
    "hosp_name":"慢活靜心診所",
    "hosp_addr":"臺北市中正區博愛路105號3樓",
    "online_available":"False",
    "mh_support_15_45":"False"
    }
  },
  {
    "type": "Feature",
    "geometry": {
       "type": "Point",
       "coordinates":  [ 121.5313811,25.018002 ]
    },
    "properties": {
    "city":"台北市",
    "district":"大安區",
    "type":"精神科診所",
    "hosp_name":"公館得心身醫學診所",
    "hosp_addr":"臺北市大安區羅斯福路3段281號3樓之1、3樓之2",
    "online_available":"False",
    "mh_support_15_45":"False"
    }
  },
  {
    "type": "Feature",
    "geometry": {
       "type": "Point",
       "coordinates":  [ 121.5307957,25.0536142 ]
    },
    "properties": {
    "city":"台北市",
    "district":"中山區",
    "type":"精神科診所",
    "hosp_name":"沐慕身心診所",
    "hosp_addr":"臺北市中山區四平街20號5樓",
    "online_available":"False",
    "mh_support_15_45":"False"
    }
  },
  {
    "type": "Feature",
    "geometry": {
       "type": "Point",
       "coordinates":  [ 121.5334554,25.0420032 ]
    },
    "properties": {
    "city":"台北市",
    "district":"大安區",
    "type":"精神科診所",
    "hosp_name":"康迎健康診所",
    "hosp_addr":"臺北市大安區忠孝東路4段76號2樓",
    "online_available":"False",
    "mh_support_15_45":"False"
    }
  },
  {
    "type": "Feature",
    "geometry": {
       "type": "Point",
       "coordinates":  [ 121.5030537,25.029604 ]
    },
    "properties": {
    "city":"台北市",
    "district":"萬華區",
    "type":"精神科診所",
    "hosp_name":"萬華維沐身心診所",
    "hosp_addr":"臺北市萬華區西藏路113號1樓",
    "online_available":"False",
    "mh_support_15_45":"True"
    }
  },
  {
    "type": "Feature",
    "geometry": {
       "type": "Point",
       "coordinates":  [ 121.580337,25.0455859 ]
    },
    "properties": {
    "city":"台北市",
    "district":"信義區",
    "type":"精神科診所",
    "hosp_name":"長源身心診所",
    "hosp_addr":"臺北市信義區永吉路525號1樓",
    "online_available":"False",
    "mh_support_15_45":"False"
    }
  },
  {
    "type": "Feature",
    "geometry": {
       "type": "Point",
       "coordinates":  [ 121.5285043,25.0925184 ]
    },
    "properties": {
    "city":"台北市",
    "district":"士林區",
    "type":"精神科診所",
    "hosp_name":"士林抱抱心身醫學診所",
    "hosp_addr":"臺北市士林區中山北路5段476號7樓",
    "online_available":"False",
    "mh_support_15_45":"False"
    }
  },
  {
    "type": "Feature",
    "geometry": {
       "type": "Point",
       "coordinates":  [ 121.4252204,25.0005655 ]
    },
    "properties": {
    "city":"台北市",
    "district":"大安區",
    "type":"精神科診所",
    "hosp_name":"怡心診所",
    "hosp_addr":"臺北市大安區大安路1段169巷7號1樓",
    "online_available":"False",
    "mh_support_15_45":"False"
    }
  },
  {
    "type": "Feature",
    "geometry": {
       "type": "Point",
       "coordinates":  [ 121.5113064,25.0627243 ]
    },
    "properties": {
    "city":"台北市",
    "district":"大同區",
    "type":"精神科診所",
    "hosp_name":"中山抱抱心身醫學診所",
    "hosp_addr":"臺北市大同區承德路1段105號5樓",
    "online_available":"False",
    "mh_support_15_45":"False"
    }
  },
  {
    "type": "Feature",
    "geometry": {
       "type": "Point",
       "coordinates":  [ 121.5544051,25.0479477 ]
    },
    "properties": {
    "city":"台北市",
    "district":"松山區",
    "type":"精神科診所",
    "hosp_name":"劉宗憲身心診所",
    "hosp_addr":"臺北市松山區八德路3段134號(1、2樓)",
    "online_available":"False",
    "mh_support_15_45":"False"
    }
  },
  {
    "type": "Feature",
    "geometry": {
       "type": "Point",
       "coordinates":  [ 121.5745193,25.0292132 ]
    },
    "properties": {
    "city":"台北市",
    "district":"信義區",
    "type":"精神醫療機構",
    "hosp_name":"臺北市立聯合醫院松德院區",
    "hosp_addr":"臺北市信義區松德路309號",
    "online_available":"True",
    "mh_support_15_45":"True"
    }
  },
  {
    "type": "Feature",
    "geometry": {
       "type": "Point",
       "coordinates":  [ 121.5453853,25.037298 ]
    },
    "properties": {
    "city":"台北市",
    "district":"大安區",
    "type":"精神醫療機構",
    "hosp_name":"臺北市立聯合醫院仁愛院區",
    "hosp_addr":"臺北市大安區仁愛路4段10號",
    "online_available":"True",
    "mh_support_15_45":"False"
    }
  },
  {
    "type": "Feature",
    "geometry": {
       "type": "Point",
       "coordinates":  [ 121.5254499,25.0635091 ]
    },
    "properties": {
    "city":"台北市",
    "district":"中山區",
    "type":"精神醫療機構",
    "hosp_name":"臺北市立聯合醫院林森中醫昆明院區",
    "hosp_addr":"臺北市中山區林森北路530號",
    "online_available":"False",
    "mh_support_15_45":"False"
    }
  },
  {
    "type": "Feature",
    "geometry": {
       "type": "Point",
       "coordinates":  [ 121.5071105,25.0353943 ]
    },
    "properties": {
    "city":"台北市",
    "district":"中正區",
    "type":"精神醫療機構",
    "hosp_name":"臺北市立聯合醫院和平婦幼院區",
    "hosp_addr":"臺北市中正區中華路2段33號",
    "online_available":"False",
    "mh_support_15_45":"True"
    }
  },
  {
    "type": "Feature",
    "geometry": {
       "type": "Point",
       "coordinates":  [ 121.5087132,25.0513086 ]
    },
    "properties": {
    "city":"台北市",
    "district":"大同區",
    "type":"精神醫療機構",
    "hosp_name":"臺北市立聯合醫院中興院區",
    "hosp_addr":"臺北市大同區鄭州路145號",
    "online_available":"False",
    "mh_support_15_45":"False"
    }
  },
  {
    "type": "Feature",
    "geometry": {
       "type": "Point",
       "coordinates":  [ 121.5318912,25.1051369 ]
    },
    "properties": {
    "city":"台北市",
    "district":"士林區",
    "type":"精神醫療機構",
    "hosp_name":"臺北市立聯合醫院陽明院區",
    "hosp_addr":"臺北市士林區雨聲街105號",
    "online_available":"False",
    "mh_support_15_45":"True"
    }
  },
  {
    "type": "Feature",
    "geometry": {
       "type": "Point",
       "coordinates":  [ 121.5861422,25.0465997 ]
    },
    "properties": {
    "city":"台北市",
    "district":"南港區",
    "type":"精神醫療機構",
    "hosp_name":"臺北市立聯合醫院忠孝院區",
    "hosp_addr":"臺北市南港區同德路87號",
    "online_available":"False",
    "mh_support_15_45":"True"
    }
  },
  {
    "type": "Feature",
    "geometry": {
       "type": "Point",
       "coordinates":  [ 121.5206943,25.0405703 ]
    },
    "properties": {
    "city":"台北市",
    "district":"中正區",
    "type":"精神醫療機構",
    "hosp_name":"國立台灣大學醫學院附設醫院",
    "hosp_addr":"臺北市中正區中山南路7號",
    "online_available":"True",
    "mh_support_15_45":"False"
    }
  },
  {
    "type": "Feature",
    "geometry": {
       "type": "Point",
       "coordinates":  [ 121.518583,25.0443271 ]
    },
    "properties": {
    "city":"台北市",
    "district":"中正區",
    "type":"精神醫療機構",
    "hosp_name":"國立臺灣大學醫學院附設醫院兒童醫院",
    "hosp_addr":"臺北市中正區中山南路8號",
    "online_available":"False",
    "mh_support_15_45":"False"
    }
  },
  {
    "type": "Feature",
    "geometry": {
       "type": "Point",
       "coordinates":  [ 121.5223977,25.0588457 ]
    },
    "properties": {
    "city":"台北市",
    "district":"中山區",
    "type":"精神醫療機構",
    "hosp_name":"台灣基督長老教會馬偕醫療財團法人馬偕紀念醫院",
    "hosp_addr":"臺北市中山區中山北路2段92號",
    "online_available":"False",
    "mh_support_15_45":"False"
    }
  },
  {
    "type": "Feature",
    "geometry": {
       "type": "Point",
       "coordinates":  [ 121.5223977,25.0588457 ]
    },
    "properties": {
    "city":"台北市",
    "district":"中山區",
    "type":"精神醫療機構",
    "hosp_name":"台灣基督長老教會馬偕醫療財團法人馬偕兒童醫院",
    "hosp_addr":"臺北市中山區中山北路2段92號",
    "online_available":"False",
    "mh_support_15_45":"False"
    }
  },
  {
    "type": "Feature",
    "geometry": {
       "type": "Point",
       "coordinates":  [ 121.5474831,25.0476829 ]
    },
    "properties": {
    "city":"台北市",
    "district":"松山區",
    "type":"精神醫療機構",
    "hosp_name":"基督復臨安息日會醫療財團法人臺安醫院",
    "hosp_addr":"臺北市松山區八德路2段424號",
    "online_available":"False",
    "mh_support_15_45":"False"
    }
  },
  {
    "type": "Feature",
    "geometry": {
       "type": "Point",
       "coordinates":  [ 121.5493054,25.0556512 ]
    },
    "properties": {
    "city":"台北市",
    "district":"松山區",
    "type":"精神醫療機構",
    "hosp_name":"長庚醫療財團法人台北長庚紀念醫院",
    "hosp_addr":"臺北市松山區敦化北路199號",
    "online_available":"False",
    "mh_support_15_45":"True"
    }
  },
  {
    "type": "Feature",
    "geometry": {
       "type": "Point",
       "coordinates":  [ 121.5576579,25.0544026 ]
    },
    "properties": {
    "city":"台北市",
    "district":"松山區",
    "type":"精神醫療機構",
    "hosp_name":"三軍總醫院松山分院附設民眾診療服務處",
    "hosp_addr":"臺北市松山區健康路131號",
    "online_available":"False",
    "mh_support_15_45":"False"
    }
  },
  {
    "type": "Feature",
    "geometry": {
       "type": "Point",
       "coordinates":  [ 121.5683516,25.0494163 ]
    },
    "properties": {
    "city":"台北市",
    "district":"松山區",
    "type":"精神醫療機構",
    "hosp_name":"培靈醫院",
    "hosp_addr":"臺北市松山區八德路4段355號",
    "online_available":"False",
    "mh_support_15_45":"False"
    }
  },